{"version": 0.6, "generator": "Overpass API 0.7.62.11 87bfad18", "osm3s": {"timestamp_osm_base": "2026-06-11T11:27:58Z", "copyright": "The data included in this document is from www.openstreetmap.org. The data is made available under ODbL."}, "elements": [{"type": "node", "id": 1080308404, "lat": 33.5278671, "lon": -7.7940568, "tags": {"shop": "convenience"}}, {"type": "node", "id": 1080311257, "lat": 33.5339039, "lon": -7.7936384, "tags": {"brand": "B\u0130M", "brand:wikidata": "Q1022075", "name": "B\u0130M", "shop": "convenience"}}, {"type": "node", "id": 1246675418, "lat": 33.6004234, "lon": -7.6172703, "tags": {"shop": "convenience"}}, {"type": "node", "id": 1746905774, "lat": 33.5966384, "lon": -7.628025, "tags": {"shop": "convenience"}}, {"type": "node", "id": 1746905778, "lat": 33.596692, "lon": -7.6297201, "tags": {"shop": "convenience"}}, {"type": "node", "id": 1746905781, "lat": 33.5966429, "lon": -7.6296397, "tags": {"shop": "convenience"}}, {"type": "node", "id": 1746905786, "lat": 33.5960083, "lon": -7.627848, "tags": {"shop": "convenience"}}, {"type": "node", "id": 1746921489, "lat": 33.5971612, "lon": -7.628353, "tags": {"shop": "convenience"}}, {"type": "node", "id": 1746934347, "lat": 33.5965848, "lon": -7.6302949, "tags": {"name:it": "Minimarket", "shop": "convenience"}}, {"type": "node", "id": 1875063750, "lat": 33.5101793, "lon": -7.6077293, "tags": {"shop": "convenience"}}, {"type": "node", "id": 1875063785, "lat": 33.5110067, "lon": -7.6104565, "tags": {"shop": "convenience"}}, {"type": "node", "id": 2140793928, "lat": 33.5957716, "lon": -7.6275422, "tags": {"shop": "convenience"}}, {"type": "node", "id": 2429582825, "lat": 33.5992194, "lon": -7.6137934, "tags": {"shop": "convenience"}}, {"type": "node", "id": 2879158742, "lat": 33.5917672, "lon": -7.6383605, "tags": {"addr:housenumber": "10", "addr:street": "Rue Michel Ange \u0632\u0646\u0642\u0629 \u0645\u064a\u0634\u0628\u0644 \u0623\u0646\u062c", "name": "Libre Service Zaki", "shop": "convenience"}}, {"type": "node", "id": 2903614166, "lat": 33.5727535, "lon": -7.6565277, "tags": {"shop": "convenience"}}, {"type": "node", "id": 2903614180, "lat": 33.5732318, "lon": -7.6555836, "tags": {"shop": "convenience"}}, {"type": "node", "id": 3590412052, "lat": 33.5530459, "lon": -7.5897091, "tags": {"name": "Bim", "shop": "convenience"}}, {"type": "node", "id": 3797205284, "lat": 33.6008471, "lon": -7.5796349, "tags": {"name": "Epicerie El Aarbi", "shop": "convenience"}}, {"type": "node", "id": 3956887759, "lat": 33.5997833, "lon": -7.6371617, "tags": {"name": "Centre Artisanal", "shop": "convenience"}}, {"type": "node", "id": 4190920144, "lat": 33.5832949, "lon": -7.6187043, "tags": {"addr:street": "Rue Al Houdhoud", "name": "Moumni Snack", "shop": "convenience", "source": "Kaart Ground Survey 2018"}}, {"type": "node", "id": 4225325202, "lat": 33.5858232, "lon": -7.611757, "tags": {"addr:street": "Boulevard d'Alsace", "name": "Chez Abed", "shop": "convenience"}}, {"type": "node", "id": 4225325236, "lat": 33.584753, "lon": -7.6108485, "tags": {"addr:street": "Boulevard de la Libert\u00e9", "shop": "convenience"}}, {"type": "node", "id": 4225325237, "lat": 33.5848631, "lon": -7.6108948, "tags": {"addr:street": "Boulevard de la Libert\u00e9", "shop": "convenience"}}, {"type": "node", "id": 4225325243, "lat": 33.5855528, "lon": -7.6128631, "tags": {"addr:street": "Boulevard d'Alsace", "shop": "convenience"}}, {"type": "node", "id": 4225325245, "lat": 33.5857737, "lon": -7.6123614, "tags": {"shop": "convenience"}}, {"type": "node", "id": 4225325263, "lat": 33.5858386, "lon": -7.6115699, "tags": {"addr:street": "Boulevard d'Alsace", "shop": "convenience"}}, {"type": "node", "id": 4232899415, "lat": 33.593054, "lon": -7.6140391, "tags": {"shop": "convenience"}}, {"type": "node", "id": 4385889309, "lat": 33.6013825, "lon": -7.6346063, "tags": {"shop": "convenience"}}, {"type": "node", "id": 4387433585, "lat": 33.5998131, "lon": -7.6344641, "tags": {"shop": "convenience"}}, {"type": "node", "id": 4577421090, "lat": 33.580233, "lon": -7.5415993, "tags": {"name": "\u0627\u0644\u0643\u0644 \u0628 5 \u062f\u0631\u0627\u0647\u0645 \u0633\u064a\u062f\u064a \u0645\u0648\u0645\u0646", "name:ar": "\u0627\u0644\u0643\u0644 \u0628 5 \u062f\u0631\u0627\u0647\u0645 \u0633\u064a\u062f\u064a \u0645\u0648\u0645\u0646", "shop": "convenience"}}, {"type": "node", "id": 5104933621, "lat": 33.6103012, "lon": -7.5304115, "tags": {"shop": "convenience"}}, {"type": "node", "id": 5268381133, "lat": 33.6020163, "lon": -7.6438822, "tags": {"name": "BIM", "shop": "convenience"}}, {"type": "node", "id": 5579637838, "lat": 33.5733051, "lon": -7.6149409, "tags": {"addr:street": "Rue Alyazidi Mohamed", "brand": "Shell Select", "brand:wikidata": "Q124359752", "name": "Shell Select", "shop": "convenience", "source": "Kaart Ground Survey 2018"}}, {"type": "node", "id": 5627299163, "lat": 33.5872307, "lon": -7.6111475, "tags": {"addr:street": "Rue el Brihi Ahmed", "name": "Snack Canizares", "shop": "convenience", "source": "Kaart Ground Survey 2018"}}, {"type": "node", "id": 5636207817, "lat": 33.5850687, "lon": -7.621232, "tags": {"addr:street": "Rue Dar\u00e2a", "name": "Snack City", "shop": "convenience", "source": "Kaart Ground Survey 2018"}}, {"type": "node", "id": 5638647160, "lat": 33.5770497, "lon": -7.6330103, "tags": {"addr:street": "Zanqat 35", "name": "Snack Abdou", "shop": "convenience", "source": "Kaart Ground Survey 2018"}}, {"type": "node", "id": 5638647165, "lat": 33.5769276, "lon": -7.6332021, "tags": {"addr:street": "Zanqat 35", "name": "Snack Amine", "shop": "convenience", "source": "Kaart Ground Survey 2018"}}, {"type": "node", "id": 5640190801, "lat": 33.569411, "lon": -7.6285833, "tags": {"addr:street": "Boulevard d'Anoual", "name": "Snack Aloum", "shop": "convenience", "source": "Kaart Ground Survey 2018"}}, {"type": "node", "id": 5640192121, "lat": 33.5754778, "lon": -7.6263933, "tags": {"addr:street": "Rue Abderrahman Zemmouri", "name": "Snack Fixi", "shop": "convenience", "source": "Kaart Ground Survey 2018"}}, {"type": "node", "id": 5640192216, "lat": 33.577312, "lon": -7.6329808, "tags": {"addr:street": "Zanqat 35", "name": "Snack Essaada", "shop": "convenience", "source": "Kaart Ground Survey 2018"}}, {"type": "node", "id": 5640192226, "lat": 33.575046, "lon": -7.6260258, "tags": {"addr:street": "Boulevard Abdelmoumen", "name": "Maro Snack", "shop": "convenience", "source": "Kaart Ground Survey 2018"}}, {"type": "node", "id": 5656943134, "lat": 33.5651892, "lon": -7.6079075, "tags": {"addr:street": "Rue 21", "name": "Para Vida", "shop": "convenience", "source": "Kaart Ground Survey 2018"}}, {"type": "node", "id": 5675830800, "lat": 33.5513514, "lon": -7.6842593, "tags": {"addr:street": "Zanqat 146", "name": "Tiago Shop", "shop": "convenience", "source": "Kaart Ground Survey 2018"}}, {"type": "node", "id": 5685795283, "lat": 33.5420408, "lon": -7.6773714, "tags": {"name": "Alimentation G\u00e9n\u00e9rale", "shop": "convenience", "source": "Kaart Ground Survey 2018"}}, {"type": "node", "id": 5688452281, "lat": 33.5168646, "lon": -7.8183214, "tags": {"name": "Snack Aya", "shop": "convenience", "source": "Kaart Ground Survey 2018"}}, {"type": "node", "id": 6027981092, "lat": 33.6094995, "lon": -7.5332786, "tags": {"addr:street": "All\u00e9e de Jasmins", "name": "fruits et l\u00e9gumes \u062e\u0636\u0631 \u0648 \u0641\u0648\u0627\u0643\u0647", "name:fr": "fruits et l\u00e9gumes", "shop": "convenience"}}, {"type": "node", "id": 6027983085, "lat": 33.6094799, "lon": -7.5333448, "tags": {"addr:street": "All\u00e9e de Jasmins", "shop": "convenience"}}, {"type": "node", "id": 6260971086, "lat": 33.6006423, "lon": -7.6382676, "tags": {"shop": "convenience"}}, {"type": "node", "id": 6260971187, "lat": 33.5998343, "lon": -7.635678, "tags": {"shop": "convenience"}}, {"type": "node", "id": 6525264991, "lat": 33.6094935, "lon": -7.5335605, "tags": {"addr:street": "Boulevard Chefchaouni", "shop": "convenience"}}, {"type": "node", "id": 6525264992, "lat": 33.6113542, "lon": -7.5309654, "tags": {"shop": "convenience"}}, {"type": "node", "id": 6525313085, "lat": 33.6122464, "lon": -7.5308494, "tags": {"addr:street": "Boulevard de la Gare", "shop": "convenience"}}, {"type": "node", "id": 8449510318, "lat": 33.6009395, "lon": -7.6349887, "tags": {"name:en": "Dried fruit shop", "shop": "convenience"}}, {"type": "node", "id": 8475709617, "lat": 33.598828, "lon": -7.6375821, "tags": {"shop": "convenience"}}, {"type": "node", "id": 9059727117, "lat": 33.5947426, "lon": -7.6421856, "tags": {"addr:housenumber": "48", "addr:postcode": "20050", "addr:street": "Rue Ja\u00e2far Ibnou Atia", "name:fr": "yengay Trade", "opening_hours": "Mo-Sa 10:00-13:30,16:00-20:00", "phone": "+212 6 14 29 23 98", "shop": "convenience"}}, {"type": "node", "id": 9260460017, "lat": 33.5755753, "lon": -7.646333, "tags": {"name:fr": "Up Market", "shop": "convenience"}}, {"type": "node", "id": 10024538000, "lat": 33.576553, "lon": -7.6687263, "tags": {"shop": "convenience"}}, {"type": "node", "id": 10112224682, "lat": 33.5744876, "lon": -7.5544471, "tags": {"name": "\u0645\u0648\u0627\u062f \u0627\u0644\u063a\u0630\u0627\u0626\u064a\u0629 \u0635\u0644\u0627\u062d", "opening_hours": "Mo-Su 10:30-23:00", "payment:cash": "yes", "shop": "convenience"}}, {"type": "node", "id": 10115113209, "lat": 33.574463, "lon": -7.5544244, "tags": {"name": "Bureaux Tabac", "opening_hours": "Mo-Su 07:00-00:30", "payment:cash": "yes", "shop": "convenience"}}, {"type": "node", "id": 10218098519, "lat": 33.593301, "lon": -7.6273077, "tags": {"brand": "Carrefour Express", "brand:wikidata": "Q2940190", "name": "Carrefour Express", "name:fr": "Carrefour Express", "shop": "convenience"}}, {"type": "node", "id": 11073944518, "lat": 33.3907448, "lon": -7.5609674, "tags": {"shop": "convenience"}}, {"type": "node", "id": 11077233921, "lat": 33.3965779, "lon": -7.5688561, "tags": {"name": "Sup\u00e9rette Kawtar", "shop": "convenience"}}, {"type": "node", "id": 11077233922, "lat": 33.392193, "lon": -7.5646353, "tags": {"name": "Sup\u00e9rette Kawtar", "shop": "convenience"}}, {"type": "node", "id": 11410363375, "lat": 33.5911782, "lon": -7.6782294, "tags": {"shop": "convenience"}}, {"type": "node", "id": 11413680782, "lat": 33.588406, "lon": -7.618008, "tags": {"shop": "convenience"}}, {"type": "node", "id": 11415330915, "lat": 33.5926666, "lon": -7.6157868, "tags": {"shop": "convenience"}}, {"type": "node", "id": 11415331442, "lat": 33.592133, "lon": -7.6157691, "tags": {"shop": "convenience"}}, {"type": "node", "id": 11630482475, "lat": 33.5399875, "lon": -7.6791549, "tags": {"shop": "convenience"}}, {"type": "node", "id": 11630494106, "lat": 33.5391694, "lon": -7.6797925, "tags": {"shop": "convenience"}}, {"type": "node", "id": 12157729550, "lat": 33.5673187, "lon": -7.6542282, "tags": {"shop": "convenience"}}, {"type": "node", "id": 12300080295, "lat": 33.5811865, "lon": -7.6422423, "tags": {"addr:street": "Rue Abou Ishak Chirazi", "check_date": "2024-10-29", "shop": "convenience"}}, {"type": "node", "id": 12300080296, "lat": 33.5811341, "lon": -7.6423016, "tags": {"addr:street": "Rue Abou Ishak Chirazi", "check_date": "2024-10-29", "shop": "convenience"}}, {"type": "node", "id": 12300080297, "lat": 33.5808266, "lon": -7.6427583, "tags": {"addr:street": "Rue Abou Ishak Chirazi", "name": "Mondial Market", "shop": "convenience"}}, {"type": "node", "id": 12300088830, "lat": 33.5807328, "lon": -7.6408999, "tags": {"addr:street": "Rue Al Mansour Al Abidi \u0632\u0646\u0642\u0629 \u0627\u0644\u0645\u0646\u0635\u0648\u0631 \u0627\u0644\u0639\u0627\u0628\u062f\u064a", "shop": "convenience"}}, {"type": "node", "id": 12300088837, "lat": 33.5810079, "lon": -7.6405848, "tags": {"addr:street": "Rue Al Mansour Al Abidi \u0632\u0646\u0642\u0629 \u0627\u0644\u0645\u0646\u0635\u0648\u0631 \u0627\u0644\u0639\u0627\u0628\u062f\u064a", "check_date": "2024-10-29", "shop": "convenience"}}, {"type": "node", "id": 12320338594, "lat": 33.5813662, "lon": -7.6417189, "tags": {"addr:street": "Rue Abou Ishak Chirazi", "check_date": "2024-11-07", "shop": "convenience"}}, {"type": "node", "id": 12321204112, "lat": 33.5815221, "lon": -7.6402524, "tags": {"addr:street": "Rue Ibn Jilali Tajeddine \u0632\u0646\u0642\u0629 \u0625\u0628\u0646 \u0627\u0644\u062c\u064a\u0644\u0627\u0644\u064a \u062a\u0627\u062c \u0627\u0644\u062f\u064a\u0646", "check_date": "2024-11-07", "shop": "convenience"}}, {"type": "node", "id": 12323348664, "lat": 33.5817087, "lon": -7.6395588, "tags": {"addr:street": "Boulevard Bir Anzarane \u0634\u0627\u0631\u0639 \u0628\u0626\u0631 \u0623\u0646\u0632\u0631\u0627\u0646", "check_date": "2024-11-08", "shop": "convenience"}}, {"type": "node", "id": 12323348665, "lat": 33.5817311, "lon": -7.6395935, "tags": {"addr:street": "Boulevard Bir Anzarane \u0634\u0627\u0631\u0639 \u0628\u0626\u0631 \u0623\u0646\u0632\u0631\u0627\u0646", "check_date": "2024-11-08", "shop": "convenience"}}, {"type": "node", "id": 12323348693, "lat": 33.5814469, "lon": -7.6398593, "tags": {"addr:street": "Rue Al Mansour Al Abidi \u0632\u0646\u0642\u0629 \u0627\u0644\u0645\u0646\u0635\u0648\u0631 \u0627\u0644\u0639\u0627\u0628\u062f\u064a", "check_date": "2024-11-08", "shop": "convenience"}}, {"type": "node", "id": 12328839519, "lat": 33.5793815, "lon": -7.6414329, "tags": {"addr:street": "Rue Brahim Nakhai \u0632\u0646\u0642\u0629 \u0625\u0628\u0631\u0627\u0647\u064a\u0645 \u0627\u0644\u0646\u062e\u0639\u064a", "check_date": "2024-11-08", "shop": "convenience"}}, {"type": "node", "id": 12328839560, "lat": 33.5796852, "lon": -7.640525, "tags": {"addr:street": "Rue Abou Amrane El Fassi \u0632\u0646\u0642\u0629 \u0623\u0628\u0648 \u0639\u0645\u0631\u0627\u0646 \u0627\u0644\u0641\u0627\u0633\u064a", "shop": "convenience"}}, {"type": "node", "id": 12526429649, "lat": 33.5799469, "lon": -7.6398544, "tags": {"shop": "convenience"}}, {"type": "node", "id": 12526429720, "lat": 33.5801724, "lon": -7.6382087, "tags": {"addr:street": "Rue Al Ghadfa", "brand": "B\u0130M", "brand:wikidata": "Q1022075", "name": "B\u0130M", "shop": "convenience"}}, {"type": "node", "id": 12717334600, "lat": 33.5911972, "lon": -7.6388189, "tags": {"addr:housenumber": "13", "addr:street": "Rue Ahmed El Mokri \u0632\u0646\u0642\u0629 \u0623\u062d\u0645\u062f \u0627\u0644\u0645\u0642\u0631\u064a", "brand": "Carrefour Express", "brand:wikidata": "Q2940190", "check_date": "2025-04-01", "level": "0", "name": "Carrefour Express", "payment:cash": "yes", "payment:credit_cards": "yes", "payment:debit_cards": "yes", "shop": "convenience"}}, {"type": "node", "id": 12802276061, "lat": 33.5877474, "lon": -7.6186834, "tags": {"name": "Fruits secs Ali", "shop": "convenience"}}, {"type": "node", "id": 13086792074, "lat": 33.5122874, "lon": -7.8230349, "tags": {"name": "Smart Market", "shop": "convenience"}}, {"type": "node", "id": 13096669655, "lat": 33.5822476, "lon": -7.64182, "tags": {"addr:street": "Rue Caid Al Achtar \u0632\u0646\u0642\u0629 \u0627\u0644\u0642\u064a\u062f \u0627\u0644\u0623\u0634\u0637\u0631", "shop": "convenience"}}, {"type": "node", "id": 13138234830, "lat": 33.5796533, "lon": -7.6418564, "tags": {"addr:street": "Rue Al Mansour Al Abidi \u0632\u0646\u0642\u0629 \u0627\u0644\u0645\u0646\u0635\u0648\u0631 \u0627\u0644\u0639\u0627\u0628\u062f\u064a", "check_date": "2025-09-12", "shop": "convenience"}}, {"type": "node", "id": 13203542806, "lat": 33.5865294, "lon": -7.6365008, "tags": {"name": "AM Market", "opening_hours": "24/7", "shop": "convenience"}}, {"type": "node", "id": 13414120375, "lat": 33.5864409, "lon": -7.6401334, "tags": {"name": "Marjane City", "shop": "convenience"}}, {"type": "node", "id": 13684245801, "lat": 33.58503, "lon": -7.6130142, "tags": {"name": "Supeco - LaBelVie", "shop": "convenience", "website": "https://supeco.ma"}}, {"type": "node", "id": 13685181301, "lat": 33.5859488, "lon": -7.6127021, "tags": {"addr:street": "Rue Abou Rakrak", "name": "Kazyon", "shop": "convenience", "website": "https://unavailable.shame"}}, {"type": "node", "id": 13691971901, "lat": 33.5944867, "lon": -7.610487, "tags": {"brand": "Carrefour Express", "brand:wikidata": "Q2940190", "name": "Carrefour Express", "shop": "convenience"}}, {"type": "node", "id": 13725398932, "lat": 33.5545173, "lon": -7.6289708, "tags": {"addr:housename": "Ouaha. Lot. C", "addr:housenumber": "58", "name": "Mini Market Ait Maten", "phone": "+212 6 69 51 02 26", "shop": "convenience"}}, {"type": "node", "id": 13853462808, "lat": 33.5855283, "lon": -7.6355755, "tags": {"brand": "Carrefour Express", "brand:wikidata": "Q2940190", "name": "Carrefour Express", "shop": "convenience"}}, {"type": "node", "id": 13853467378, "lat": 33.5820083, "lon": -7.6387259, "tags": {"name": "In-Vape Tabac", "shop": "convenience"}}, {"type": "node", "id": 13853481761, "lat": 33.5824138, "lon": -7.6382795, "tags": {"name": "Fruits Secs Saber", "shop": "convenience"}}, {"type": "node", "id": 13853481768, "lat": 33.5820622, "lon": -7.638882, "tags": {"shop": "convenience"}}, {"type": "node", "id": 13853903235, "lat": 33.5878462, "lon": -7.6385789, "tags": {"name": "D\u00e9panneur", "shop": "convenience"}}, {"type": "node", "id": 13861018495, "lat": 33.5873494, "lon": -7.6406362, "tags": {"name": "M Market", "shop": "convenience"}}, {"type": "node", "id": 13905868734, "lat": 33.5843403, "lon": -7.641957, "tags": {"addr:street": "Rue Al Imam Attabarani \u0632\u0646\u0642\u0629 \u0627\u0644\u0625\u0645\u0627\u0645 \u0627\u0644\u0637\u0628\u0631\u0627\u0646\u064a", "brand": "Carrefour Express", "brand:wikidata": "Q2940190", "name": "Carrefour Express", "shop": "convenience"}}, {"type": "node", "id": 13906241528, "lat": 33.5883544, "lon": -7.6436397, "tags": {"name": "AM Market", "opening_hours": "24/7", "shop": "convenience"}}, {"type": "node", "id": 13921186543, "lat": 33.5861909, "lon": -7.6348822, "tags": {"name": "Hila Shop", "shop": "convenience"}}, {"type": "node", "id": 13921293027, "lat": 33.5899044, "lon": -7.6392685, "tags": {"shop": "convenience"}}]}