{"version": 0.6, "generator": "Overpass API 0.7.62.11 87bfad18", "osm3s": {"timestamp_osm_base": "2026-06-11T11:28:57Z", "copyright": "The data included in this document is from www.openstreetmap.org. The data is made available under ODbL."}, "elements": [{"type": "node", "id": 516618709, "lat": 33.5952195, "lon": -7.6115725, "tags": {"addr:city": "Casablanca", "addr:housenumber": "129", "addr:street": "Rue Allal Ben Abdellah", "amenity": "restaurant", "cuisine": "tapas", "name": "La Bodega", "website": "https://restopro.ma/bodega"}}, {"type": "node", "id": 516618742, "lat": 33.6028481, "lon": -7.619212, "tags": {"addr:city": "Casablanca", "addr:street": "Boulevard des Almohades", "amenity": "restaurant", "cuisine": "moroccan", "internet_access": "wlan", "name": "La Sqala", "website": "https://restopro.ma/sqala", "wheelchair": "yes"}}, {"type": "node", "id": 516618748, "lat": 33.5928474, "lon": -7.597267, "tags": {"amenity": "restaurant", "brand": "Pizza Hut", "brand:fr": "Pizza Hut", "brand:wikidata": "Q191615", "brand:wikipedia": "fr:Pizza Hut", "cuisine": "pizza", "name": "Pizza Hut", "name:fr": "Pizza Hut"}}, {"type": "node", "id": 566450810, "lat": 33.5896864, "lon": -7.6265742, "tags": {"amenity": "restaurant", "cuisine": "italian"}}, {"type": "node", "id": 770274905, "lat": 33.595533, "lon": -7.6454829, "tags": {"amenity": "restaurant", "name": "Chez P\u00e9p\u00e9"}}, {"type": "node", "id": 1246675535, "lat": 33.5999101, "lon": -7.6174265, "tags": {"amenity": "restaurant"}}, {"type": "node", "id": 1464269393, "lat": 33.5938278, "lon": -7.5969183, "tags": {"addr:street": "Boulevard \u00c9mile Zola", "amenity": "restaurant", "cuisine": "international", "name": "Paradisio", "name:fr": "Paradisio"}}, {"type": "node", "id": 1746925524, "lat": 33.5962988, "lon": -7.6304773, "tags": {"amenity": "restaurant", "cuisine": "international", "name": "Mamelouk Caf\u00e9"}}, {"type": "node", "id": 1867119561, "lat": 33.5882356, "lon": -7.6398452, "tags": {"addr:street": "Rue Ibnou Yaala Al Ifrani \u0632\u0646\u0642\u0629 \u0627\u0628\u0646 \u064a\u0639\u0644\u0649 \u0627\u0644\u0625\u0641\u0631\u0627\u0646\u064a", "amenity": "restaurant", "branch": "Ma\u00e2rif", "check_date": "2025-03-31", "cuisine": "italian", "diet:halal": "yes", "email": "contact@luigi.ma", "name": "Luigi", "outdoor_seating": "yes", "payment:apple_pay": "yes", "payment:cards": "yes", "payment:cash": "yes", "payment:contactless": "yes", "phone": "+212 5 22 39 02 71", "website": "https://luigi.ma/"}}, {"type": "node", "id": 1875063812, "lat": 33.5109396, "lon": -7.6103706, "tags": {"amenity": "restaurant"}}, {"type": "node", "id": 1875063883, "lat": 33.5100315, "lon": -7.6077605, "tags": {"amenity": "restaurant"}}, {"type": "node", "id": 2102250048, "lat": 33.587649, "lon": -7.612959, "tags": {"addr:city": "Casablanca", "addr:street": "Rue Abou Rakrak", "amenity": "restaurant", "cuisine": "spanish", "name": "Don Camilo", "outdoor_seating": "no", "smoking": "yes", "wheelchair": "yes"}}, {"type": "node", "id": 2119486596, "lat": 33.604995, "lon": -7.620406, "tags": {"addr:city": "Casablanca", "addr:housenumber": "248", "addr:street": "Boulevard Sour Jdid", "amenity": "restaurant", "contact:email": "booking.rickscafe@gmail.com", "cuisine": "mediterranean", "delivery": "no", "drink:wine": "served", "internet_access": "wlan", "name": "Rick's Cafe", "opening_hours": "Mo-Su 12:00-15:00,18:30-01:00", "outdoor_seating": "no", "phone": "+212 522 27 42 07", "smoking": "yes", "takeaway": "no", "website": "https://www.rickscafe.ma/", "wikidata": "Q5857561", "wikimedia_commons": "Category:Rick's Caf\u00e9", "wikipedia": "en:Rick's Caf\u00e9 Casablanca"}}, {"type": "node", "id": 2250923969, "lat": 33.6015279, "lon": -7.6144679, "tags": {"amenity": "restaurant", "cuisine": "fish", "name": "Restaurant du Port", "name:es": "Restaurante del Puerto", "name:fr": "Restaurant du Port"}}, {"type": "node", "id": 2429582824, "lat": 33.6018149, "lon": -7.614031, "tags": {"amenity": "restaurant", "cuisine": "fish", "name": "Restaurant Ostrea", "name:es": "Restaurante Ostrea", "name:fr": "Restaurant Ostrea", "name:it": "Ristorante Ostrea"}}, {"type": "node", "id": 2429583929, "lat": 33.6076996, "lon": -7.6555825, "tags": {"amenity": "restaurant", "cuisine": "regional"}}, {"type": "node", "id": 2429583956, "lat": 33.6080257, "lon": -7.6553304, "tags": {"amenity": "restaurant", "cuisine": "regional", "name": "Le Cabestan"}}, {"type": "node", "id": 2429590656, "lat": 33.6014266, "lon": -7.6604266, "tags": {"amenity": "restaurant"}}, {"type": "node", "id": 2429590661, "lat": 33.6007855, "lon": -7.6603997, "tags": {"amenity": "restaurant", "name": "Lebanese Restaurant"}}, {"type": "node", "id": 2582305772, "lat": 33.5966434, "lon": -7.6750589, "tags": {"amenity": "restaurant", "name": "Luigi"}}, {"type": "node", "id": 2582305777, "lat": 33.5909207, "lon": -7.6791755, "tags": {"amenity": "restaurant", "name": "Sijilmassa \u0633\u062c\u0644\u0645\u0627\u0633\u0629", "name:ar": "\u0633\u062c\u0644\u0645\u0627\u0633\u0629", "name:fr": "Sijilmassa"}}, {"type": "node", "id": 2640991899, "lat": 33.5832948, "lon": -7.6418718, "tags": {"addr:street": "Boulevard Bir Anzarane \u0634\u0627\u0631\u0639 \u0628\u0626\u0631 \u0623\u0646\u0632\u0631\u0627\u0646", "amenity": "restaurant", "branch": "Bir Anzarane", "brand": "La Grillardi\u00e8re", "name": "La Grillardi\u00e8re"}}, {"type": "node", "id": 2641044308, "lat": 33.5810317, "lon": -7.6370564, "tags": {"amenity": "restaurant", "cuisine": "pizza", "name": "pizzeria italian"}}, {"type": "node", "id": 2807638659, "lat": 33.5703274, "lon": -7.6663165, "tags": {"amenity": "restaurant", "name": "Monsieur Brochettes"}}, {"type": "node", "id": 2815126356, "lat": 33.6011445, "lon": -7.634303, "tags": {"amenity": "restaurant", "cuisine": "turkish", "internet_access": "no", "name": "Chawarma Nour esham \u0634\u0627\u0648\u0631\u0645\u0627 \u0646\u0648\u0631 \u0627\u0644\u0634\u0627\u0645", "name:ar": "\u0634\u0627\u0648\u0631\u0645\u0627 \u0646\u0648\u0631 \u0627\u0644\u0634\u0627\u0645", "name:en": "Chawarma Nour Cham \u0634\u0627\u0648\u0631\u0645\u0627 \u0646\u0648\u0631 \u0627\u0644\u0634\u0627\u0645", "name:fr": "Chawarma Nour esham", "opening_hours": "Mo-Su 12:00-24:00", "smoking": "separated", "wheelchair": "yes"}}, {"type": "node", "id": 2836515135, "lat": 33.5443065, "lon": -7.6413493, "tags": {"amenity": "restaurant", "brand": "Pizza Hut", "brand:wikidata": "Q191615", "brand:wikipedia": "en:Pizza Hut", "cuisine": "pizza", "name": "Pizza Hut"}}, {"type": "node", "id": 2855080444, "lat": 33.5973488, "lon": -7.6273398, "tags": {"addr:street": "Bordeaux", "amenity": "restaurant", "cuisine": "french", "name": "potchi"}}, {"type": "node", "id": 2879158748, "lat": 33.5917889, "lon": -7.6391526, "tags": {"addr:housenumber": "23-25", "addr:street": "Rue Ahmed El Mokri \u0632\u0646\u0642\u0629 \u0623\u062d\u0645\u062f \u0627\u0644\u0645\u0642\u0631\u064a", "amenity": "restaurant", "cuisine": "indian", "level": "0", "name": "India Palace"}}, {"type": "node", "id": 2887382056, "lat": 33.5974462, "lon": -7.635698, "tags": {"amenity": "restaurant", "cuisine": "sandwich", "name": "Chez Omar", "smoking": "yes"}}, {"type": "node", "id": 2887426107, "lat": 33.5970619, "lon": -7.6382193, "tags": {"addr:housenumber": "348", "addr:postcode": "20220", "addr:street": "Boulevard Mohamed Zerktouni", "amenity": "restaurant", "cuisine": "coffee_shop;crepe;italian;moroccan;breakfast;pizza;pasta;soba;sandwich;tea;chicken;fish;kebab;italian_pizza;burger;cake;seafood;savory_pancakes;deli", "internet_access": "wlan", "name": "Seven 7 Days", "opening_hours": "Mo-Su 07:00-01:00", "phone": "+212 5 22 43 03 00", "smoking": "outside"}}, {"type": "node", "id": 2892070130, "lat": 33.5885888, "lon": -7.6385756, "tags": {"addr:housenumber": "7", "addr:postcode": "20100", "addr:street": "Rue Ibnou Yaala Al Ifrani \u0632\u0646\u0642\u0629 \u0627\u0628\u0646 \u064a\u0639\u0644\u0649 \u0627\u0644\u0625\u0641\u0631\u0627\u0646\u064a", "amenity": "restaurant", "cuisine": "italian", "diet:halal": "yes", "name": "La Toscana"}}, {"type": "node", "id": 2894489074, "lat": 33.588034, "lon": -7.6401077, "tags": {"addr:street": "Rue Ibnou Yaala Al Ifrani \u0632\u0646\u0642\u0629 \u0627\u0628\u0646 \u064a\u0639\u0644\u0649 \u0627\u0644\u0625\u0641\u0631\u0627\u0646\u064a", "amenity": "restaurant", "name": "Pomme de Pain"}}, {"type": "node", "id": 2903614169, "lat": 33.5731692, "lon": -7.6567852, "tags": {"amenity": "restaurant", "name": "Nori, Restaurent Japonais"}}, {"type": "node", "id": 2916714196, "lat": 33.5918245, "lon": -7.6266906, "tags": {"amenity": "restaurant", "cuisine": "fish_and_chips", "name": "La grotte du p\u00eacheur"}}, {"type": "node", "id": 2916728402, "lat": 33.5924545, "lon": -7.6270366, "tags": {"amenity": "restaurant", "name": "Keykos"}}, {"type": "node", "id": 2935946001, "lat": 33.582573, "lon": -7.614684, "tags": {"amenity": "restaurant", "name": "Baleno"}}, {"type": "node", "id": 3094231185, "lat": 33.601239, "lon": -7.6360079, "tags": {"amenity": "restaurant", "cuisine": "mexican"}}, {"type": "node", "id": 3118805799, "lat": 33.5938761, "lon": -7.581693, "tags": {"amenity": "restaurant"}}, {"type": "node", "id": 3122596378, "lat": 33.5939034, "lon": -7.5816157, "tags": {"amenity": "restaurant", "name": "Ait toufawt"}}, {"type": "node", "id": 3125732943, "lat": 33.5887094, "lon": -7.628123, "tags": {"amenity": "restaurant", "name": "La Grillardiere", "payment:credit_cards": "yes", "payment:debit_cards": "yes"}}, {"type": "node", "id": 3207439277, "lat": 33.5930227, "lon": -7.627037, "tags": {"amenity": "restaurant", "name": "Fratelli"}}, {"type": "node", "id": 3207857677, "lat": 33.5947844, "lon": -7.6282046, "tags": {"amenity": "restaurant", "name": "La perle du liban"}}, {"type": "node", "id": 3207892236, "lat": 33.5948135, "lon": -7.6274321, "tags": {"amenity": "restaurant", "name": "Monsieur Brochettes"}}, {"type": "node", "id": 3207896772, "lat": 33.5953217, "lon": -7.6256267, "tags": {"amenity": "restaurant", "name": "Restaurant King Burger"}}, {"type": "node", "id": 3302460932, "lat": 33.5675139, "lon": -7.7095158, "tags": {"amenity": "restaurant", "name": "Restaurant West Atlantic"}}, {"type": "node", "id": 3346714116, "lat": 33.5927762, "lon": -7.6258481, "tags": {"amenity": "restaurant"}}, {"type": "node", "id": 3346778855, "lat": 33.5930787, "lon": -7.6231024, "tags": {"amenity": "restaurant", "cuisine": "moroccan"}}, {"type": "node", "id": 3346778856, "lat": 33.5926824, "lon": -7.6228688, "tags": {"amenity": "restaurant", "name": "Restaurant Rouget de l'Isle"}}, {"type": "node", "id": 3359688591, "lat": 33.5934314, "lon": -7.6240699, "tags": {"addr:street": "Rue d'Alger", "amenity": "restaurant", "name": "Alae", "source": "Kaart Ground Survey 2018"}}, {"type": "node", "id": 3359700945, "lat": 33.5942124, "lon": -7.6249351, "tags": {"amenity": "restaurant", "name": "Kalinka"}}, {"type": "node", "id": 3359763591, "lat": 33.5930752, "lon": -7.6271159, "tags": {"amenity": "restaurant", "name": "12 Cool"}}, {"type": "node", "id": 3359785189, "lat": 33.5930876, "lon": -7.6267545, "tags": {"amenity": "restaurant", "name": "Bistronome"}}, {"type": "node", "id": 3391107993, "lat": 33.5911393, "lon": -7.6150735, "tags": {"addr:street": "Boulevard du 11 Janvier", "amenity": "restaurant", "name": "Oukaimeden", "source": "Kaart Ground Survey 2018"}}, {"type": "node", "id": 3472846043, "lat": 33.5956364, "lon": -7.6171591, "tags": {"amenity": "restaurant", "name": "Le Cardinal"}}, {"type": "node", "id": 3484648826, "lat": 33.5932039, "lon": -7.6186518, "tags": {"amenity": "restaurant", "name": "Snack Addou Maddou"}}, {"type": "node", "id": 3484648827, "lat": 33.5935525, "lon": -7.6185955, "tags": {"amenity": "restaurant", "name": "Restaurant les Arcades", "name:it": "Les Arcades"}}, {"type": "node", "id": 3519550285, "lat": 33.598736, "lon": -7.6151053, "tags": {"amenity": "restaurant", "name": "La Taverne du Dauphin", "name:fr": "La Taverne du Dauphin"}}, {"type": "node", "id": 3633688599, "lat": 33.5997377, "lon": -7.6650484, "tags": {"amenity": "restaurant", "cuisine": "american", "name": "Little Barton's"}}, {"type": "node", "id": 3770737158, "lat": 33.5978725, "lon": -7.615386, "tags": {"amenity": "restaurant", "cuisine": "regional", "name": "Casa Jos\u00e9", "name:es": "Casa Jos\u00e9", "smoking": "yes", "takeaway": "no"}}, {"type": "node", "id": 3907197006, "lat": 33.5592404, "lon": -7.6699846, "tags": {"alt_name:ar": "\u0628\u0627\u0628 \u0627\u0644\u0645\u0646\u0635\u0648\u0631", "amenity": "restaurant", "name": "Porte Mansour \u2d31\u2d30\u2d31 \u2d4e\u2d4f\u2d5a\u2d53\u2d55 \u0628\u0627\u0628 \u0645\u0646\u0635\u0648\u0631", "name:ar": "\u0628\u0627\u0628 \u0645\u0646\u0635\u0648\u0631", "name:ber": "\u2d31\u2d30\u2d31 \u2d4e\u2d4f\u2d5a\u2d53\u2d55", "name:fr": "Porte Mansour", "name:zgh": "\u2d31\u2d30\u2d31 \u2d4e\u2d4f\u2d5a\u2d53\u2d55"}}, {"type": "node", "id": 3957575622, "lat": 33.4786769, "lon": -7.7555362, "tags": {"amenity": "restaurant"}}, {"type": "node", "id": 3980994158, "lat": 33.6007185, "lon": -7.6341062, "tags": {"amenity": "restaurant", "cuisine": "burger", "name": "Tacos de Lyon", "takeaway": "yes"}}, {"type": "node", "id": 4100233490, "lat": 33.5884913, "lon": -7.6273923, "tags": {"amenity": "restaurant", "name": "Bistrot Chic"}}, {"type": "node", "id": 4100239189, "lat": 33.589095, "lon": -7.6297476, "tags": {"amenity": "restaurant", "cuisine": "sandwich", "internet_access": "wlan", "name": "Sojou", "website": "https://sojou.ma"}}, {"type": "node", "id": 4100382628, "lat": 33.5886833, "lon": -7.6319196, "tags": {"addr:city": "Casablanca", "addr:housenumber": "9", "addr:street": "Rue Th\u00e9ophile Gauthier", "amenity": "restaurant", "cuisine": "burger", "name": "Blend", "outdoor_seating": "yes", "payment:credit_cards": "yes", "payment:debit_cards": "yes", "phone": "+212 5 22 49 11 22"}}, {"type": "node", "id": 4190920174, "lat": 33.5840347, "lon": -7.6205679, "tags": {"addr:street": "Rue Saad Ben Abi Waqqas", "amenity": "restaurant", "name": "Khos", "source": "Kaart Ground Survey 2018"}}, {"type": "node", "id": 4193540594, "lat": 33.5978396, "lon": -7.6155008, "tags": {"amenity": "restaurant", "name": "brasserie san jose"}}, {"type": "node", "id": 4193588837, "lat": 33.5991745, "lon": -7.6130528, "tags": {"amenity": "restaurant", "name": "Asia", "name:fr": "Asia"}}, {"type": "node", "id": 4193589236, "lat": 33.599424, "lon": -7.6141726, "tags": {"amenity": "restaurant", "name": "\u00d4gi Souchi", "name:fr": "\u00d4gi Souchi"}}, {"type": "node", "id": 4193590348, "lat": 33.5954492, "lon": -7.6163427, "tags": {"addr:housenumber": "32", "amenity": "restaurant", "name": "El Barocco Time"}}, {"type": "node", "id": 4202029389, "lat": 33.596662, "lon": -7.6734143, "tags": {"addr:street": "Boulevard de la Corniche", "amenity": "restaurant", "name": "Le Pilotis"}}, {"type": "node", "id": 4221347653, "lat": 33.5897214, "lon": -7.592208, "tags": {"amenity": "restaurant", "name": "Restaurant de la Place / Le Voyageur"}}, {"type": "node", "id": 4225325229, "lat": 33.5896015, "lon": -7.6149002, "tags": {"amenity": "restaurant", "name": "Puerto Rico"}}, {"type": "node", "id": 4232899411, "lat": 33.5916822, "lon": -7.6149169, "tags": {"addr:street": "Boulevard de Paris", "amenity": "restaurant", "name": "Awafi"}}, {"type": "node", "id": 4239813391, "lat": 33.5936551, "lon": -7.6352553, "tags": {"amenity": "restaurant", "cuisine": "french;coffee_shop;bagel;ice_cream;crepe", "internet_access": "wlan", "name": "Pomme de Pain Ziraoui"}}, {"type": "node", "id": 4265807606, "lat": 33.5952135, "lon": -7.6113257, "tags": {"amenity": "restaurant", "name": "La Bavaroise"}}, {"type": "node", "id": 4320672213, "lat": 33.5956652, "lon": -7.6125814, "tags": {"addr:housenumber": "8-10", "addr:postcode": "20250", "addr:street": "Rue de la Chaouia", "amenity": "restaurant", "cuisine": "chinese", "diet:vegan": "yes", "diet:vegetarian": "yes", "name": "Restaurant Le Nouveau Dragon", "name:fr": "Restaurant Le Nouveau Dragon", "name:zh": "\u65b0\u9f99\u95e8\u996d\u5e97", "opening_hours": "Mo-Su 10:00-22:00", "phone": "+212 5 22 45 08 96"}}, {"type": "node", "id": 4326922063, "lat": 33.6155331, "lon": -7.4843667, "tags": {"addr:city": "Casablanca", "amenity": "restaurant", "cuisine": "pizza", "name": "Snack Pizzeria Bella Maria", "takeaway": "yes"}}, {"type": "node", "id": 4355971289, "lat": 33.5835849, "lon": -7.62396, "tags": {"addr:street": "Boulevard Mohamed Zerktouni", "amenity": "restaurant", "source": "Kaart Ground Survey 2018"}}, {"type": "node", "id": 4385036679, "lat": 33.595159, "lon": -7.5913872, "tags": {"amenity": "restaurant", "name": "Carrefour des Saveurs"}}, {"type": "node", "id": 4387012191, "lat": 33.589393, "lon": -7.6315688, "tags": {"amenity": "restaurant", "name:it": "dolce e salato"}}, {"type": "node", "id": 4395791989, "lat": 33.5861039, "lon": -7.6489235, "tags": {"amenity": "restaurant", "internet_access": "wlan", "name": "Espace Tifawine", "opening_hours": "Mo-Su 06:00-23:00"}}, {"type": "node", "id": 4438876139, "lat": 33.5946859, "lon": -7.6679576, "tags": {"addr:street": "Boulevard Kennedy \u0634\u0627\u0631\u0639 \u0643\u064a\u0646\u064a\u062f\u064a", "amenity": "restaurant", "name": "La Storia"}}, {"type": "node", "id": 4469841890, "lat": 33.591863, "lon": -7.6345249, "tags": {"addr:street": "Boulevard d'Anfa", "amenity": "restaurant", "cuisine": "asian", "name": "O'lichi", "name:fr": "O'lichi"}}, {"type": "node", "id": 4471365713, "lat": 33.5157081, "lon": -7.8568521, "tags": {"amenity": "restaurant", "name:en": "Babaloo Beach Club"}}, {"type": "node", "id": 4497651190, "lat": 33.5154818, "lon": -7.8573192, "tags": {"amenity": "restaurant", "name:en": "Les 3 M\u00e2ts"}}, {"type": "node", "id": 4497653989, "lat": 33.5153208, "lon": -7.8577304, "tags": {"amenity": "restaurant", "name:en": "Sunny Beach"}}, {"type": "node", "id": 4497659489, "lat": 33.5909223, "lon": -7.6164407, "tags": {"addr:housenumber": "95", "amenity": "restaurant", "brewery": "various", "check_date": "2025-11-15", "cuisine": "moroccan", "diet:vegetarian": "yes", "name": "Al-Mounia", "outdoor_seating": "yes", "payment:cash": "only", "reservation": "yes", "toilets": "yes", "toilets:wheelchair": "no", "wheelchair": "no"}}, {"type": "node", "id": 4497664315, "lat": 33.6011409, "lon": -7.6602991, "tags": {"amenity": "restaurant", "name:en": "Le Relais de Paris"}}, {"type": "node", "id": 4511695590, "lat": 33.5921096, "lon": -7.6288039, "tags": {"addr:housenumber": "3", "addr:postcode": "20000", "addr:street": "Rue Abou Hadil Allaf", "amenity": "restaurant", "internet_access": "wlan", "name": "La Cantine de Charlotte", "name:fr": "La Cantine de Charlotte"}}, {"type": "node", "id": 4540851789, "lat": 33.5915512, "lon": -7.615164, "tags": {"addr:housenumber": "16", "addr:postcode": "20000", "addr:street": "Avenue Lalla Yacout", "amenity": "restaurant", "cuisine": "barbecue", "email": "snack.lalla.yacout@gmail.com", "name": "Rouge et Blanc \u0623\u062d\u0645\u0631 \u0648 \u0627\u0628\u064a\u0636", "name:ar": "\u0623\u062d\u0645\u0631 \u0648 \u0627\u0628\u064a\u0636", "name:fr": "Rouge et Blanc", "opening_hours": "24/7", "phone": "+212 679793649"}}, {"type": "node", "id": 4553971889, "lat": 33.5728964, "lon": -7.6552882, "tags": {"amenity": "restaurant", "name": "Route 66"}}, {"type": "node", "id": 4557148590, "lat": 33.585652, "lon": -7.6355809, "tags": {"amenity": "restaurant", "name": "Cosa Mia"}}, {"type": "node", "id": 4589036349, "lat": 33.5962863, "lon": -7.6144369, "tags": {"amenity": "restaurant", "brand": "Pizza Hut", "brand:fr": "Pizza Hut", "brand:wikidata": "Q191615", "brand:wikipedia": "fr:Pizza Hut", "cuisine": "pizza", "name": "Pizza Hut", "name:fr": "Pizza Hut"}}, {"type": "node", "id": 4590448491, "lat": 33.5966374, "lon": -7.6149916, "tags": {"amenity": "restaurant", "name": "les Fleurs"}}, {"type": "node", "id": 4674572890, "lat": 33.588864, "lon": -7.628391, "tags": {"amenity": "restaurant", "name": "Midway"}}, {"type": "node", "id": 4713278692, "lat": 33.5759859, "lon": -7.6476182, "tags": {"addr:housenumber": "124", "addr:street": "Rue jounaid", "amenity": "restaurant", "branch": "Les Princesses", "brand": "Yo Ti Tam", "cuisine": "asian", "internet_access": "wlan", "name": "Yo Ti Tam", "phone": "+212 5 22 26 12 62", "takeaway": "yes"}}, {"type": "node", "id": 4750308922, "lat": 33.619789, "lon": -7.5326657, "tags": {"amenity": "restaurant", "name": "Croc Pizza \u0643\u0631\u0648\u0643 \u0628\u064a\u062a\u0632\u0627", "name:ar": "\u0643\u0631\u0648\u0643 \u0628\u064a\u062a\u0632\u0627", "name:fr": "Croc Pizza"}}, {"type": "node", "id": 4752753123, "lat": 33.5713686, "lon": -7.6450329, "tags": {"amenity": "restaurant", "cuisine": "moroccan", "internet_access": "wlan", "name": "H & B Food", "phone": "+212 540085480"}}, {"type": "node", "id": 4782537123, "lat": 33.5609277, "lon": -7.6467836, "tags": {"amenity": "restaurant", "name": "Chez Marny"}}, {"type": "node", "id": 4786274153, "lat": 33.5885241, "lon": -7.611296, "tags": {"addr:street": "Boulevard Rahal El Meskini", "amenity": "restaurant", "cuisine": "asian", "name": "Yammy", "source": "Kaart Ground Survey 2018"}}, {"type": "node", "id": 4929296521, "lat": 33.5959788, "lon": -7.6133174, "tags": {"amenity": "restaurant"}}, {"type": "node", "id": 4937330722, "lat": 33.5926963, "lon": -7.6172792, "tags": {"amenity": "restaurant", "name:en": "Ifrane"}}, {"type": "node", "id": 4994852422, "lat": 33.5766703, "lon": -7.6334533, "tags": {"amenity": "restaurant", "name": "Snack amine", "name:fr": "Snack amine"}}, {"type": "node", "id": 5011004926, "lat": 33.5942298, "lon": -7.6435836, "tags": {"addr:housenumber": "45", "addr:street": "Boulevard Ain Taoujtate \u0639\u064a\u0646 \u062a\u0627\u0648\u062c\u0637\u0627\u062a", "amenity": "restaurant", "branch": "Bourgogne", "brand": "Cosa Mia", "check_date": "2025-04-04", "name": "Cosa Mia", "opening_hours": "Mo-Su 09:30-22:00", "phone": "+212 5 22 20 78 93"}}, {"type": "node", "id": 5033634962, "lat": 33.5677841, "lon": -7.5995875, "tags": {"amenity": "restaurant", "name": "Gzoum \u0643\u064e\u0632\u0651\u0648\u0645", "name:ar": "\u0643\u064e\u0632\u0651\u0648\u0645", "name:fr": "Gzoum"}}, {"type": "node", "id": 5055279721, "lat": 33.5937929, "lon": -7.6325707, "tags": {"amenity": "restaurant", "name:en": "Churrascaria Marius"}}, {"type": "node", "id": 5104934122, "lat": 33.5522882, "lon": -7.6800779, "tags": {"amenity": "restaurant", "cuisine": "steak_house;grill"}}, {"type": "node", "id": 5105342622, "lat": 33.5925128, "lon": -7.6166956, "tags": {"amenity": "restaurant", "name": "Salsa"}}, {"type": "node", "id": 5139379923, "lat": 33.6071887, "lon": -7.5437586, "tags": {"addr:street": "All\u00e9e des P\u00eachers", "amenity": "restaurant", "name": "La grillardiere", "name:en": "La grillardiere", "name:fr": "La grillardiere"}}, {"type": "node", "id": 5159127122, "lat": 33.5474032, "lon": -7.5746211, "tags": {"addr:street": "Avenue du Commandant Driss Harti", "amenity": "restaurant", "name": "\u0633\u0646\u0627\u0643 \u062f\u0639\u0627\u0621", "name:ar": "\u0633\u0646\u0627\u0643 \u062f\u0639\u0627\u0621", "name:en": "Snack Doaa", "opening_hours": "Mo-Su 12:00-01:00"}}, {"type": "node", "id": 5216977822, "lat": 33.5901754, "lon": -7.630709, "tags": {"amenity": "restaurant", "name": "Class Dish Coffee Shop", "payment:credit_cards": "yes", "payment:debit_cards": "yes"}}, {"type": "node", "id": 5260725357, "lat": 33.5953324, "lon": -7.6121111, "tags": {"addr:housenumber": "107", "addr:street": "Rue Allal Ben Abdellah", "amenity": "restaurant", "description": "Reasonably priced restaurant serving Moroccan food in authentic ambience", "name": "Restaurant Etoile Centrale", "phone": "+212 5 27 01 86 25", "website": "https://www.etoilecentrale.com"}}, {"type": "node", "id": 5314907623, "lat": 33.6001875, "lon": -7.6173776, "tags": {"amenity": "restaurant", "name:en": "Casa Fish"}}, {"type": "node", "id": 5314907629, "lat": 33.608568, "lon": -7.629199, "tags": {"amenity": "restaurant", "name:en": "Cappadocia"}}, {"type": "node", "id": 5420578721, "lat": 33.6096078, "lon": -7.5421005, "tags": {"amenity": "restaurant", "name": "adwak \u0627\u0630\u0648\u0627\u0642", "name:ar": "\u0627\u0630\u0648\u0627\u0642", "name:fr": "adwak"}}, {"type": "node", "id": 5422740636, "lat": 33.5352248, "lon": -7.6400077, "tags": {"amenity": "restaurant", "name": "La Cantine"}}, {"type": "node", "id": 5467116470, "lat": 33.5615795, "lon": -7.6922167, "tags": {"amenity": "restaurant"}}, {"type": "node", "id": 5493739822, "lat": 33.6128314, "lon": -7.530422, "tags": {"amenity": "restaurant", "cuisine": "italian;french", "name": "Osteria"}}, {"type": "node", "id": 5548276072, "lat": 33.6038507, "lon": -7.6340267, "tags": {"addr:street": "Boulevard D'El Hank", "amenity": "restaurant", "cuisine": "moroccan;italian", "name:en": "Chez Reda"}}, {"type": "node", "id": 5548276527, "lat": 33.6037476, "lon": -7.6342259, "tags": {"addr:street": "Boulevard D'El Hank", "amenity": "restaurant", "cuisine": "turkish", "name:en": "Orient"}}, {"type": "node", "id": 5576311440, "lat": 33.593796, "lon": -7.6009733, "tags": {"addr:street": "Rue A\u00eft Ba Amrane", "amenity": "restaurant", "name": "La Sala", "source": "Kaart Ground Survey 2018"}}, {"type": "node", "id": 5579366273, "lat": 33.5936446, "lon": -7.6022226, "tags": {"addr:street": "Boulevard Mohamed V", "amenity": "restaurant", "name": "City Palace", "source": "Kaart Ground Survey 2018"}}, {"type": "node", "id": 5579479090, "lat": 33.5906473, "lon": -7.6035677, "tags": {"addr:street": "Boulevard de la R\u00e9sistance", "amenity": "restaurant", "name": "Adib Food", "source": "Kaart Ground Survey 2018"}}, {"type": "node", "id": 5579479112, "lat": 33.5946578, "lon": -7.6043656, "tags": {"addr:street": "Rue Pierre Parent", "amenity": "restaurant", "name": "Dragon Bleu", "source": "Kaart Ground Survey 2018"}}, {"type": "node", "id": 5579551208, "lat": 33.5894727, "lon": -7.5921448, "tags": {"addr:street": "Boulevard Bahmad", "amenity": "restaurant", "name": "Caf\u00e9 Restaurant Tarfaya", "source": "Kaart Ground Survey 2018"}}, {"type": "node", "id": 5581263529, "lat": 33.578465, "lon": -7.6001546, "tags": {"addr:street": "Boulevard Mohammed VI", "amenity": "restaurant", "name": "Cafe Clacier Dubai", "source": "Kaart Ground Survey 2018"}}, {"type": "node", "id": 5581426027, "lat": 33.5713977, "lon": -7.6131754, "tags": {"addr:street": "Avenue 2 Mars", "amenity": "restaurant", "name": "Tacos Avenue", "source": "Kaart Ground Survey 2018"}}, {"type": "node", "id": 5581426029, "lat": 33.5703496, "lon": -7.6124807, "tags": {"addr:street": "Avenue 2 Mars", "amenity": "restaurant", "name": "Z\u00e9n", "source": "Kaart Ground Survey 2018"}}, {"type": "node", "id": 5583468023, "lat": 33.5406446, "lon": -7.5801185, "tags": {"addr:street": "Boulevard d'Amgala", "amenity": "restaurant", "name": "Cr\u00e8merie Achkid", "source": "Kaart Ground Survey 2018"}}, {"type": "node", "id": 5587128825, "lat": 33.5881278, "lon": -7.6310701, "tags": {"addr:housenumber": "2", "addr:street": "Rue Th\u00e9ophile Gauthier", "amenity": "restaurant", "name": "Kamar lebnan", "name:ar": "\u0642\u0645\u0631 \u0644\u0628\u0646\u0627\u0646", "name:fr": "Kamar lebnan", "payment:credit_cards": "yes", "payment:debit_cards": "yes"}}, {"type": "node", "id": 5589599883, "lat": 33.5650026, "lon": -7.5882496, "tags": {"addr:street": "Boulevard Abdellah Senhaji", "amenity": "restaurant", "name": "Salon de Th\u00e9", "source": "Kaart Ground Survey 2018"}}, {"type": "node", "id": 5589601434, "lat": 33.5691305, "lon": -7.5839634, "tags": {"addr:street": "Boulevard Bouchaib Doukkali", "amenity": "restaurant", "name": "Caf\u00e9 Imdioune", "source": "Kaart Ground Survey 2018"}}, {"type": "node", "id": 5589601461, "lat": 33.5716212, "lon": -7.5806791, "tags": {"addr:street": "Boulevard du Golan", "amenity": "restaurant", "name": "Linati", "source": "Kaart Ground Survey 2018"}}, {"type": "node", "id": 5591121934, "lat": 33.5698484, "lon": -7.5946172, "tags": {"addr:street": "Rue 8", "amenity": "restaurant", "name": "Espace Al Fath", "source": "Kaart Ground Survey 2018"}}, {"type": "node", "id": 5595534180, "lat": 33.5500951, "lon": -7.5677656, "tags": {"addr:street": "Boulevard du Golan \u0634\u0627\u0631\u0639 \u0627\u0644\u062c\u0648\u0644\u0627\u0646", "amenity": "restaurant", "name": "Caf\u00e9 Aswan", "source": "Kaart Ground Survey 2018"}}, {"type": "node", "id": 5595616134, "lat": 33.5401886, "lon": -7.5741479, "tags": {"addr:street": "Avenue d'Oued Eddahab", "amenity": "restaurant", "name": "Rainbow Cafe", "source": "Kaart Ground Survey 2018"}}, {"type": "node", "id": 5595616189, "lat": 33.5372811, "lon": -7.5734632, "tags": {"addr:street": "Avenue Mekdad Lahrizi", "amenity": "restaurant", "name": "Espace Changuai", "source": "Kaart Ground Survey 2018"}}, {"type": "node", "id": 5595616202, "lat": 33.539538, "lon": -7.573873, "tags": {"addr:street": "Rue 188", "amenity": "restaurant", "name": "Ramada", "source": "Kaart Ground Survey 2018"}}, {"type": "node", "id": 5608045977, "lat": 33.5488254, "lon": -7.572265, "tags": {"addr:street": "Avenue du Commandant Driss Harti", "amenity": "restaurant", "name": "Caf\u00e9 Agadir", "source": "Kaart Ground Survey 2018"}}, {"type": "node", "id": 5610101865, "lat": 33.5995316, "lon": -7.5874275, "tags": {"addr:street": "Rue de Dax", "amenity": "restaurant", "name": "La Revanche", "source": "Kaart Ground Survey 2018"}}, {"type": "node", "id": 5610371352, "lat": 33.5914595, "lon": -7.5915232, "tags": {"addr:street": "Rue Sijlmassa", "amenity": "restaurant", "name": "Chami Bacha", "source": "Kaart Ground Survey 2018"}}, {"type": "node", "id": 5611821639, "lat": 33.5963614, "lon": -7.592572, "tags": {"addr:street": "Boulevard Emile Zola", "amenity": "restaurant", "name": "Friend's Space", "source": "Kaart Ground Survey 2018"}}, {"type": "node", "id": 5612459287, "lat": 33.5962274, "lon": -7.5905161, "tags": {"addr:street": "Rue Vimy", "amenity": "restaurant", "name": "Wisley Gardens", "source": "Kaart Ground Survey 2018"}}, {"type": "node", "id": 5618306059, "lat": 33.5937954, "lon": -7.5178684, "tags": {"addr:street": "Boulevard Mohamed Al Bakkali", "amenity": "restaurant", "name": "Espace Yasmine", "source": "Kaart Ground Survey 2018"}}, {"type": "node", "id": 5620066619, "lat": 33.5795879, "lon": -7.5127602, "tags": {"addr:street": "Boulevard Mohamed Zefzaf", "amenity": "restaurant", "name": "Porta Biella", "source": "Kaart Ground Survey 2018"}}, {"type": "node", "id": 5622982588, "lat": 33.5455617, "lon": -7.4849658, "tags": {"addr:street": "Boulevard El Marinieene", "amenity": "restaurant", "name": "Espace Araha", "source": "Kaart Ground Survey 2018"}}, {"type": "node", "id": 5632885417, "lat": 33.5732368, "lon": -7.5600154, "tags": {"amenity": "restaurant", "name": "Mister Tacos", "source": "Kaart Ground Survey 2018"}}, {"type": "node", "id": 5633594729, "lat": 33.5618099, "lon": -7.5656694, "tags": {"addr:street": "Avenue du 10 Mars 1982", "amenity": "restaurant", "name": "Caf\u00e9 Chabab", "source": "Kaart Ground Survey 2018"}}, {"type": "node", "id": 5636025115, "lat": 33.5783371, "lon": -7.5884742, "tags": {"addr:street": "Boulevard Hassan Alaoui", "amenity": "restaurant", "name": "L'Araignee", "source": "Kaart Ground Survey 2018"}}, {"type": "node", "id": 5636182959, "lat": 33.5559918, "lon": -7.6280361, "tags": {"addr:street": "Boulevard Taddart", "amenity": "restaurant", "name": "Pizza Hut", "source": "Kaart Ground Survey 2018"}}, {"type": "node", "id": 5636182968, "lat": 33.5552927, "lon": -7.6239109, "tags": {"addr:street": "Route de Taddart", "amenity": "restaurant", "name": "Restaurant Sushing", "source": "Kaart Ground Survey 2018"}}, {"type": "node", "id": 5636207647, "lat": 33.593863, "lon": -7.6215278, "tags": {"addr:street": "Boulevard de Paris", "amenity": "restaurant", "name": "Cremerie Cadillac", "source": "KaartGroundSurvey2018"}}, {"type": "node", "id": 5636207684, "lat": 33.5866702, "lon": -7.6195295, "tags": {"addr:street": "Rue Mostafa Al Maani", "amenity": "restaurant", "cuisine": "chinese", "name": "Dragon Rouge", "source": "Kaart Ground Survey 2018"}}, {"type": "node", "id": 5636207687, "lat": 33.5873919, "lon": -7.6200056, "tags": {"addr:street": "Rue Omarslaoui", "amenity": "restaurant", "name": "Tacos Paco's", "source": "Kaart Ground Survey 2018"}}, {"type": "node", "id": 5636207699, "lat": 33.587965, "lon": -7.6181281, "tags": {"addr:housenumber": "73", "addr:postcode": "20032", "addr:street": "Rue Allal Al Fassi", "amenity": "restaurant", "cuisine": "moroccan", "name": "Restaurant Anfa", "opening_hours": "Mo-Su 12:00-02:00", "source": "Kaart Ground Survey 2018"}}, {"type": "node", "id": 5636207702, "lat": 33.5879293, "lon": -7.6187316, "tags": {"addr:street": "Rue Allal Al Fassi", "amenity": "restaurant", "name": "Chawarmati", "source": "Kaart Ground Survey 2018"}}, {"type": "node", "id": 5636207703, "lat": 33.5879136, "lon": -7.6188844, "tags": {"addr:street": "Rue Allal Al Fassi", "amenity": "restaurant", "cuisine": "pizza", "name": "Le Triangle", "source": "Kaart Ground Survey 2018"}}, {"type": "node", "id": 5636207706, "lat": 33.5882734, "lon": -7.6191768, "tags": {"addr:street": "Rue Omarslaoui", "amenity": "restaurant", "name": "Midi Grill", "source": "Kaart Ground Survey 2018"}}, {"type": "node", "id": 5636207716, "lat": 33.5939764, "lon": -7.6212837, "tags": {"addr:street": "Boulevard de Paris", "amenity": "restaurant", "name": "G\u00e9nial", "source": "Kaart Ground Survey 2018"}}, {"type": "node", "id": 5636207735, "lat": 33.5884516, "lon": -7.6189864, "tags": {"addr:street": "Rue Omarslaoui", "amenity": "restaurant", "name": "Fish", "source": "Kaart Ground Survey 2018"}}, {"type": "node", "id": 5636207746, "lat": 33.58644, "lon": -7.6212743, "tags": {"addr:street": "Rue Omarslaoui", "amenity": "restaurant", "name": "Woody Chay Pizza", "source": "Kaart Ground Survey 2018"}}, {"type": "node", "id": 5636207747, "lat": 33.5863831, "lon": -7.6213648, "tags": {"addr:street": "Rue Omarslaoui", "amenity": "restaurant", "name": "Sushi Kiosque", "source": "Kaart Ground Survey 2018"}}, {"type": "node", "id": 5636207783, "lat": 33.5835632, "lon": -7.6231066, "tags": {"addr:street": "Boulevard Mohamed Zerktouni", "amenity": "restaurant", "name": "La Rotonde", "source": "KaartGroundSurvey2018"}}, {"type": "node", "id": 5636207786, "lat": 33.5837218, "lon": -7.6222828, "tags": {"addr:street": "Rue Errommene", "amenity": "restaurant", "cuisine": "pizza", "name": "Pizzaria le Drapeau", "source": "Kaart Ground Survey 2018"}}, {"type": "node", "id": 5636207803, "lat": 33.5847519, "lon": -7.6210168, "tags": {"addr:postcode": "20000", "addr:street": "Rue Al Woroud", "amenity": "restaurant", "internet_access": "wlan", "name": "Meson Asador", "opening_hours": "Mo-Su 12:00-24:00", "phone": "+212 5 22 26 18 18", "source": "Kaart Ground Survey 2018", "website": "https://m.facebook.com/mesonasadorcasa/"}}, {"type": "node", "id": 5636207804, "lat": 33.5846997, "lon": -7.6204271, "tags": {"addr:street": "Rue El Haman", "amenity": "restaurant", "name": "Los Olivos", "source": "Kaart Ground Survey 2018"}}, {"type": "node", "id": 5638347795, "lat": 33.5829487, "lon": -7.6325181, "tags": {"addr:street": "Boulevard Ibrahim Roudani", "amenity": "restaurant", "cuisine": "pizza", "name": "Speedy Pizza", "source": "Kaart Ground Survey 2018"}}, {"type": "node", "id": 5638347843, "lat": 33.5852524, "lon": -7.6301752, "tags": {"addr:street": "Boulevard Ibrahim Roudani", "amenity": "restaurant", "name": "Treff Restaurant", "source": "KaartGroundSurvey2018"}}, {"type": "node", "id": 5640034522, "lat": 33.5692119, "lon": -7.6464826, "tags": {"amenity": "restaurant", "name": "Clic Resto"}}, {"type": "node", "id": 5640034524, "lat": 33.5705845, "lon": -7.6461728, "tags": {"addr:housenumber": "142", "addr:street": "Boulevard Ghandi \u0634\u0627\u0631\u0639 \u063a\u0627\u0646\u062f\u064a", "amenity": "restaurant", "brand": "Pizza Hut", "brand:wikidata": "Q191615", "cuisine": "pizza", "name": "Pizza Hut"}}, {"type": "node", "id": 5640584128, "lat": 33.5689908, "lon": -7.6432429, "tags": {"addr:street": "Boulevard Gandhi", "amenity": "restaurant", "name": "Clay Oven", "source": "Kaart Ground Survey 2018"}}, {"type": "node", "id": 5640584424, "lat": 33.5796337, "lon": -7.6357582, "tags": {"addr:street": "Boulevard Ibrahim Roudani", "amenity": "restaurant", "name": "Ch\u00e2teau de Jus", "name:fr": "Ch\u00e2teau de Jus", "source": "Kaart Ground Survey 2018"}}, {"type": "node", "id": 5640732011, "lat": 33.575946, "lon": -7.6357397, "tags": {"addr:street": "Rue Le Titien", "amenity": "restaurant", "name": "Le Brunch Gourmet", "source": "Kaart Ground Survey 2018"}}, {"type": "node", "id": 5649875030, "lat": 33.572219, "lon": -7.6378034, "tags": {"addr:street": "Rue Al Bachir Laalaj", "amenity": "restaurant", "name": "Ambre", "source": "Kaart Ground Survey 2018"}}, {"type": "node", "id": 5654640885, "lat": 33.5695652, "lon": -7.604255, "tags": {"addr:street": "Rue 29", "amenity": "restaurant", "name": "Espace Essaha", "source": "Kaart Ground Survey 2018"}}, {"type": "node", "id": 5654641157, "lat": 33.5666319, "lon": -7.6085828, "tags": {"addr:street": "Rue 10", "amenity": "restaurant", "name": "Espace El Mitre", "source": "Kaart Ground Survey 2018"}}, {"type": "node", "id": 5654641158, "lat": 33.566647, "lon": -7.6085942, "tags": {"addr:street": "Rue 10", "amenity": "restaurant", "name": "Espace Bruxellois", "source": "Kaart Ground Survey 2018"}}, {"type": "node", "id": 5654832280, "lat": 33.568982, "lon": -7.6035224, "tags": {"addr:street": "Boulevard el Fida", "amenity": "restaurant", "name": "Belma Juice", "source": "Kaart Ground Survey 2018"}}, {"type": "node", "id": 5655194935, "lat": 33.5363583, "lon": -7.5958724, "tags": {"addr:street": "Boulevard de Tiflet", "amenity": "restaurant", "name": "Espace Lano", "source": "Kaart Ground Survey 2018"}}, {"type": "node", "id": 5656714924, "lat": 33.5723922, "lon": -7.6487508, "tags": {"addr:street": "Boulevard Ghandi", "amenity": "restaurant", "cuisine": "pizza", "name": "Chrono Pizza", "source": "Kaart Ground Survey 2018"}}, {"type": "node", "id": 5656714929, "lat": 33.5761041, "lon": -7.6528935, "tags": {"addr:street": "Boulevard Ghandi", "amenity": "restaurant", "name": "Restaurant Otkali", "source": "Kaart Ground Survey 2018"}}, {"type": "node", "id": 5657167240, "lat": 33.587898, "lon": -7.6135576, "tags": {"addr:street": "Boulevard Rahal El Meskini", "amenity": "restaurant", "name": "Atlas Ifrane", "source": "Kaart Ground Survey 2018"}}, {"type": "node", "id": 5657167252, "lat": 33.5886119, "lon": -7.6143153, "tags": {"addr:street": "Rue EssanoIbar", "amenity": "restaurant", "name": "El Barco", "source": "Kaart Ground Survey 2018"}}, {"type": "node", "id": 5657167261, "lat": 33.5868478, "lon": -7.6151709, "tags": {"addr:street": "Rue Abou Bakr Essediq", "amenity": "restaurant", "name": "Resaurant Des Billards", "source": "Kaart Ground Survey 2018"}}, {"type": "node", "id": 5657167263, "lat": 33.586354, "lon": -7.614955, "tags": {"addr:street": "Rue Hadj Omar Riffi", "amenity": "restaurant", "name": "Marjorelle", "source": "Kaart Ground Survey 2018"}}, {"type": "node", "id": 5657167267, "lat": 33.5854736, "lon": -7.6157543, "tags": {"addr:street": "Boulevard d'Alsace", "amenity": "restaurant", "name": "MarIInsky", "source": "Kaart Ground Survey 2018"}}, {"type": "node", "id": 5657167289, "lat": 33.5848782, "lon": -7.6078324, "tags": {"addr:street": "Boulevard de la R\u00e9sistance", "amenity": "restaurant", "name": "Le Coin", "source": "KaartGroundSurvey2018"}}, {"type": "node", "id": 5657167290, "lat": 33.5848558, "lon": -7.6079075, "tags": {"addr:street": "Boulevard de la R\u00e9sistance", "amenity": "restaurant", "name": "Widane Palace", "note": "W in name is correct", "source": "KaartGroundSurvey2018"}}, {"type": "node", "id": 5657167310, "lat": 33.5894766, "lon": -7.6124364, "tags": {"addr:street": "Rue Yaman", "amenity": "restaurant", "name": "Restaurant Chez Pierre", "source": "KaartGroundSurvey2018"}}, {"type": "node", "id": 5657171523, "lat": 33.5945662, "lon": -7.6209028, "tags": {"addr:street": "Boulevard Moulay Hassan Ier", "amenity": "restaurant", "name": "Restaurant Savoy", "source": "KaartGroundSurvey2018"}}, {"type": "node", "id": 5657171529, "lat": 33.5897483, "lon": -7.6157184, "tags": {"addr:street": "Rue Al Araar", "amenity": "restaurant", "name": "Pizza a la Bonne", "source": "Kaart Ground Survey 2018"}}, {"type": "node", "id": 5657171530, "lat": 33.590034, "lon": -7.6152192, "tags": {"addr:street": "Rue Al Araar", "amenity": "restaurant", "name": "La Corrida", "source": "Kaart Ground Survey 2018"}}, {"type": "node", "id": 5657171532, "lat": 33.5906574, "lon": -7.6148263, "tags": {"addr:street": "Boulevard du 11 Janvier", "amenity": "restaurant", "name": "Tout Va Bien", "source": "Kaart Ground Survey 2018"}}, {"type": "node", "id": 5657171548, "lat": 33.5955795, "lon": -7.6143301, "tags": {"addr:street": "Rue Allal Ben Abdellah", "amenity": "restaurant", "name": "Revine", "name:fr": "Revine", "source": "KaartGroundSurvey2018"}}, {"type": "node", "id": 5657171555, "lat": 33.5951226, "lon": -7.6086304, "tags": {"addr:street": "Rue de Karachi", "amenity": "restaurant", "name": "Pizzeria-cafe Chawarma", "source": "KaartGroundSurvey2018"}}, {"type": "node", "id": 5657171557, "lat": 33.5935284, "lon": -7.6082126, "tags": {"amenity": "restaurant", "name": "Samar Layali", "source": "KaartGroundSurvey2018"}}, {"type": "node", "id": 5657171558, "lat": 33.5931793, "lon": -7.6078632, "tags": {"amenity": "restaurant", "name": "Poulet Dor\u00e9", "name:fr": "Poulet Dor\u00e9"}}, {"type": "node", "id": 5657171573, "lat": 33.5911209, "lon": -7.6133799, "tags": {"addr:street": "Avenue Lalla Yacout", "amenity": "restaurant", "name": "Majestic Resaurant Marocan", "source": "KaartGroundSurvey2018"}}, {"type": "node", "id": 5657171577, "lat": 33.5920438, "lon": -7.6166797, "tags": {"addr:street": "Avenue Lalla Yacout", "amenity": "restaurant", "name": "Restaurant du Theatre", "source": "KaartGroundSurvey2018"}}, {"type": "node", "id": 5664415379, "lat": 33.5376656, "lon": -7.6687118, "tags": {"addr:street": "Boulevard Omar Khayam", "amenity": "restaurant", "name": "Mon Ami", "source": "Kaart Ground Survey 2018"}}, {"type": "node", "id": 5670602624, "lat": 33.5674554, "lon": -7.6939843, "tags": {"addr:street": "Rue 25", "amenity": "restaurant", "name": "Pharma Granada", "source": "Kaart Ground Survey 2018"}}, {"type": "node", "id": 5670719288, "lat": 33.5673557, "lon": -7.6965867, "tags": {"addr:street": "Rue 52", "amenity": "restaurant", "name": "Espace Hassania", "source": "Kaart Ground Survey 2018"}}, {"type": "node", "id": 5670833173, "lat": 33.5325229, "lon": -7.6476485, "tags": {"amenity": "restaurant", "cuisine": "pizza", "name": "Pizza Hut", "source": "Kaart Ground Survey 2018"}}, {"type": "node", "id": 5682883556, "lat": 33.5562645, "lon": -7.6832762, "tags": {"addr:street": "Boulevard Oued Oum Rbia", "amenity": "restaurant", "name": "Red Rose", "source": "Kaart Ground Survey 2018"}}, {"type": "node", "id": 5685625621, "lat": 33.5400975, "lon": -7.6806255, "tags": {"amenity": "restaurant", "name": "Riviera Valencia", "source": "Kaart Ground Survey 2018"}}, {"type": "node", "id": 5685625742, "lat": 33.5519516, "lon": -7.6897169, "tags": {"addr:street": "Route Haj Fateh", "amenity": "restaurant", "name": "Les Poussins", "source": "Kaart Ground Survey 2018"}}, {"type": "node", "id": 5685795249, "lat": 33.5453119, "lon": -7.6801595, "tags": {"amenity": "restaurant", "name": "Espace Familia", "source": "Kaart Ground Survey 2018"}}, {"type": "node", "id": 5685795278, "lat": 33.5419262, "lon": -7.6775792, "tags": {"addr:street": "Boulevard Oued Daoura", "amenity": "restaurant", "name": "Espace Nour Al Khalil", "source": "Kaart Ground Survey 2018"}}, {"type": "node", "id": 5685795422, "lat": 33.5435263, "lon": -7.6786152, "tags": {"addr:street": "Boulevard Oued Daoura", "amenity": "restaurant", "name": "Marbella", "source": "Kaart Ground Survey 2018"}}, {"type": "node", "id": 5686129283, "lat": 33.5456204, "lon": -7.6729812, "tags": {"addr:street": "Boulevard HH 48", "amenity": "restaurant", "name": "Corner 68", "source": "Kaart Ground Survey 2018"}}, {"type": "node", "id": 5686229757, "lat": 33.5368116, "lon": -7.7817737, "tags": {"amenity": "restaurant", "name": "Votre Espace Gourmet", "source": "Kaart Ground Survey 2018"}}, {"type": "node", "id": 5688679331, "lat": 33.5354445, "lon": -7.648429, "tags": {"addr:street": "Zanqat 30", "amenity": "restaurant", "name": "Tokyo Garden", "source": "Kaart Ground Survey 2018"}}, {"type": "node", "id": 5688679336, "lat": 33.5356496, "lon": -7.6484176, "tags": {"addr:street": "Zanqat 30", "amenity": "restaurant", "name": "TaTaRi Sushi and Thai", "source": "Kaart Ground Survey 2018"}}, {"type": "node", "id": 5907413295, "lat": 33.6096966, "lon": -7.6513866, "tags": {"amenity": "restaurant", "name": "Vanilla Sky Rooftop", "name:fr": "Vanilla Sky Rooftop"}}, {"type": "node", "id": 6015275348, "lat": 33.6094083, "lon": -7.6247259, "tags": {"amenity": "restaurant", "name": "Gusto Marina"}}, {"type": "node", "id": 6027867149, "lat": 33.5535777, "lon": -7.704828, "tags": {"addr:city": "Casablanca", "amenity": "restaurant", "capacity": "10", "cuisine": "juice", "name": "\u0641\u0636\u0627\u0621 \u0639\u0645\u0631", "name:ar": "\u0641\u0636\u0627\u0621 \u0639\u0645\u0631", "name:en": "Omar's Space", "name:fr": "Espace Omar", "opening_hours": "Mo-Su 09:00-22:00", "outdoor_seating": "yes", "takeaway": "yes"}}, {"type": "node", "id": 6027868947, "lat": 33.5526991, "lon": -7.7038912, "tags": {"amenity": "restaurant", "capacity": "10", "cuisine": "sandwich;juice", "delivery": "no", "name": "Laiterie Nacer \u0645\u062d\u0644\u0628\u0629 \u0646\u0627\u0635\u0631", "name:ar": "Laiterie Nacer \u0645\u062d\u0644\u0628\u0629 \u0646\u0627\u0635\u0631", "name:fr": "Laiterie Nacer", "opening_hours": "Mo-Su 09:00-23:00", "outdoor_seating": "yes", "takeaway": "yes"}}, {"type": "node", "id": 6260970492, "lat": 33.5999574, "lon": -7.6374594, "tags": {"amenity": "restaurant"}}, {"type": "node", "id": 6414954598, "lat": 33.6045098, "lon": -7.5367318, "tags": {"amenity": "restaurant", "name:en": "Kasebaa"}}, {"type": "node", "id": 6422884968, "lat": 33.4746919, "lon": -7.6070534, "tags": {"amenity": "restaurant", "name": "Sazio"}}, {"type": "node", "id": 6422885667, "lat": 33.4747887, "lon": -7.6069203, "tags": {"amenity": "restaurant", "name": "Fifties"}}, {"type": "node", "id": 6428032442, "lat": 33.5584027, "lon": -7.6365781, "tags": {"amenity": "restaurant", "name": "Guillaume Tell"}}, {"type": "node", "id": 6429124586, "lat": 33.592645, "lon": -7.6057098, "tags": {"amenity": "restaurant", "name:en": "Konak food"}}, {"type": "node", "id": 6429149188, "lat": 33.5952032, "lon": -7.6170338, "tags": {"amenity": "restaurant", "cuisine": "italian_pizza;tea;pizza;burger;pasta;fish;moroccan;sandwich;local;grill", "name:en": "Romano"}}, {"type": "node", "id": 6431526286, "lat": 33.5957634, "lon": -7.6121601, "tags": {"amenity": "restaurant", "name:en": "Miramar"}}, {"type": "node", "id": 6431526287, "lat": 33.5958763, "lon": -7.6115436, "tags": {"amenity": "restaurant", "name:en": "CTM Cafe restaurant"}}, {"type": "node", "id": 6437202685, "lat": 33.5953961, "lon": -7.6177769, "tags": {"addr:street": "Place des Nations Unies", "amenity": "restaurant", "cuisine": "moroccan", "name": "Ramses"}}, {"type": "node", "id": 6474152545, "lat": 33.4852892, "lon": -7.6712046, "tags": {"amenity": "restaurant"}}, {"type": "node", "id": 6474180285, "lat": 33.5926127, "lon": -7.6211353, "tags": {"amenity": "restaurant", "name:en": "Le Cuisto Traditionel", "name:fr": "Le Cuisto Traditionnel"}}, {"type": "node", "id": 6503950404, "lat": 33.5772485, "lon": -7.6073776, "tags": {"amenity": "restaurant", "name": "Zayna"}}, {"type": "node", "id": 6535812685, "lat": 33.6075479, "lon": -7.6297906, "tags": {"amenity": "restaurant", "name": "Le Gatsby", "outdoor_seating": "yes"}}, {"type": "node", "id": 6593094661, "lat": 33.4873604, "lon": -7.6337505, "tags": {"amenity": "restaurant", "name": "Restaurants Petromine Bouskoura"}}, {"type": "node", "id": 6593095501, "lat": 33.52237, "lon": -7.6428551, "tags": {"amenity": "restaurant", "cuisine": "coffee_shop;pizza;burger;sandwich", "name": "Street London"}}, {"type": "node", "id": 6593140334, "lat": 33.5217415, "lon": -7.6445565, "tags": {"amenity": "restaurant", "check_date:opening_hours": "2023-12-08", "name": "c3002953", "name:en": "boufous abdelah 2953", "opening_hours:signed": "no"}}, {"type": "node", "id": 6646667486, "lat": 33.5939635, "lon": -7.614938, "tags": {"addr:housenumber": "45", "addr:postcode": "20100", "addr:street": "Rue Mohamed El Qorri", "amenity": "restaurant", "name": "Le Riad", "name:fr": "Le Riad", "opening_hours": "Mo-Su 09:00-23:00", "phone": "+212 5 22 22 58 50"}}, {"type": "node", "id": 6785673762, "lat": 33.5921312, "lon": -7.6791656, "tags": {"addr:city": "Casablanca", "addr:housenumber": "2", "addr:postcode": "20180", "addr:street": "Rue Des Rochers Ain Diab", "amenity": "restaurant", "name": "Raffaello Casablanca", "phone": "+212 6 61 69 89 78"}}, {"type": "node", "id": 6785713355, "lat": 33.592135, "lon": -7.6792447, "tags": {"addr:city": "Casablanca", "addr:housenumber": "2", "addr:postcode": "20180", "addr:street": "Rue Des Rochers Ain Diab", "amenity": "restaurant", "name": "Sicilia", "phone": "+212 6 61 69 89 78"}}, {"type": "node", "id": 6853557085, "lat": 33.3754875, "lon": -7.5821991, "tags": {"amenity": "restaurant", "name": "Salon VIP", "name:es": "Salon VIP", "name:fr": "Salon VIP", "name:ru": "VIP-\u0437\u0430\u043b"}}, {"type": "node", "id": 6856335264, "lat": 33.5911771, "lon": -7.6364102, "tags": {"addr:city": "Casablanca", "addr:housenumber": "138", "addr:postcode": "20300", "addr:street": "Boulevard d'Anfa \u0634\u0627\u0631\u0639 \u0623\u0646\u0641\u0627", "air_conditioning": "yes", "amenity": "restaurant", "bar": "yes", "capacity": "180", "cuisine": "french;international;seafood;steak_house;turkish", "internet_access": "wlan", "internet_access:fee": "no", "internet_access:ssid": "loscar wifi", "name": "Loscar", "not:name": "oscar_cabaret;oscar;loscar_cabaret", "opening_hours": "Mo-Su 21:30-05:00", "payment:credit_cards": "yes", "payment:debit_cards": "yes", "phone": "+212 6 25 60 00 00", "reservation": "yes"}}, {"type": "node", "id": 6864809985, "lat": 33.6053778, "lon": -7.6288227, "tags": {"amenity": "restaurant", "name:zh": "\u718a\u732b\u9910\u5385"}}, {"type": "node", "id": 6938936087, "lat": 33.5902873, "lon": -7.6304589, "tags": {"amenity": "restaurant", "name": "Restaurant Rossignol", "payment:credit_cards": "yes", "payment:debit_cards": "yes"}}, {"type": "node", "id": 6992706601, "lat": 33.598658, "lon": -7.637643, "tags": {"addr:city": "Casablanca \u2d5c\u2d30\u2d37\u2d37\u2d30\u2d54\u2d5c \u2d5c\u2d53\u2d4e\u2d4d\u2d49\u2d4d\u2d5c \u0627\u0644\u062f\u0627\u0631 \u0627\u0644\u0628\u064a\u0636\u0627\u0621", "addr:housenumber": "5", "addr:street": "Rue Tama\u00e2rouft", "amenity": "restaurant", "contact:facebook": "https://www.facebook.com/LaKitchenetteCasa/", "cuisine": "vietnamese", "delivery": "yes", "level": "0", "mobile": "+212 672194681", "name": "La Kitchenette de Thi Hue", "opening_hours": "12:00-15:00,19:00-23:00, Mo-Sa open", "outdoor_seating": "no", "phone": "+212 522262613", "toilets": "yes"}}, {"type": "node", "id": 7168676438, "lat": 33.6155792, "lon": -7.4989528, "tags": {"amenity": "restaurant", "cuisine": "seafood"}}, {"type": "node", "id": 7168679403, "lat": 33.6137676, "lon": -7.4972911, "tags": {"amenity": "restaurant"}}, {"type": "node", "id": 7168679405, "lat": 33.6142457, "lon": -7.4959916, "tags": {"amenity": "restaurant", "name": "City Pool"}}, {"type": "node", "id": 7168679406, "lat": 33.6127893, "lon": -7.4946881, "tags": {"amenity": "restaurant", "name": "Firstline"}}, {"type": "node", "id": 7168801047, "lat": 33.6150341, "lon": -7.497786, "tags": {"amenity": "restaurant", "name": "snack said"}}, {"type": "node", "id": 7168801048, "lat": 33.6149359, "lon": -7.4982473, "tags": {"amenity": "restaurant", "name": "snack ounain"}}, {"type": "node", "id": 7168861988, "lat": 33.6089452, "lon": -7.5063106, "tags": {"amenity": "restaurant"}}, {"type": "node", "id": 7168861994, "lat": 33.606832, "lon": -7.5052002, "tags": {"amenity": "restaurant"}}, {"type": "node", "id": 7169432371, "lat": 33.6068839, "lon": -7.524614, "tags": {"amenity": "restaurant"}}, {"type": "node", "id": 7204137762, "lat": 33.5947846, "lon": -7.6420504, "tags": {"addr:city": "Casablanca", "addr:housenumber": "53", "addr:postcode": "20250", "addr:street": "Rue Abou Jaafar Bnou Atia", "amenity": "restaurant", "delivery": "yes", "name": "pizza badr", "opening_hours": "Mo-Su 07:00-23:00", "outdoor_seating": "yes", "phone": "+212 5 22 27 27 34", "website": "https://www.instagram.com/pizzabadr"}}, {"type": "node", "id": 7204137763, "lat": 33.5481916, "lon": -7.6842292, "tags": {"addr:city": "Casablanca \u2d5c\u2d30\u2d37\u2d37\u2d30\u2d54\u2d5c \u2d5c\u2d53\u2d4e\u2d4d\u2d49\u2d4d\u2d5c \u0627\u0644\u062f\u0627\u0631 \u0627\u0644\u0628\u064a\u0636\u0627\u0621", "addr:housenumber": "174", "addr:street": "Boulevard Oued Daoura", "amenity": "restaurant", "cuisine": "international", "name": "Pasta Pino", "opening_hours": "Mo-Su 11:00-00:30", "phone": "+212 5 22 69 56 98", "website": "https://www.instagram.com/pastapino"}}, {"type": "node", "id": 7507101926, "lat": 33.4907947, "lon": -7.5992206, "tags": {"amenity": "restaurant", "name": "Casa Jose"}}, {"type": "node", "id": 7507282908, "lat": 33.5931096, "lon": -7.6324939, "tags": {"addr:city": "Casablanca", "addr:postcode": "20250", "addr:street": "Abbas Mahmoud Al Akkad", "amenity": "restaurant", "cuisine": "burger", "name": "Blendcorner", "payment:credit_cards": "yes", "payment:debit_cards": "yes"}}, {"type": "node", "id": 7552940084, "lat": 33.5944438, "lon": -7.6338089, "tags": {"addr:housenumber": "275", "addr:postcode": "20100", "addr:street": "Boulevard Ziraoui \u0634\u0627\u0631\u0639 \u0627\u0644\u0632\u064a\u0631\u0627\u0648\u064a", "amenity": "restaurant", "cuisine": "sandwich", "name": "Snack le Rayon", "opening_hours:covid19": "restricted"}}, {"type": "node", "id": 7552941286, "lat": 33.5941785, "lon": -7.6343386, "tags": {"addr:city": "Casablanca", "addr:postcode": "20250", "addr:street": "Boulevard Ziraoui", "amenity": "restaurant", "cuisine": "burger", "name": "STR'EAT BURGER", "opening_hours": "12:00-06:00", "phone": "+212 5 20 44 76 26"}}, {"type": "node", "id": 7563521211, "lat": 33.5937567, "lon": -7.6349208, "tags": {"amenity": "restaurant", "name": "Food Place"}}, {"type": "node", "id": 7563657088, "lat": 33.5942943, "lon": -7.6340776, "tags": {"addr:city": "Casablanca", "addr:housenumber": "275 Boulevard Ziraoui", "addr:postcode": "20100", "addr:street": "Boulevard Ziraoui", "amenity": "restaurant", "cuisine": "kebab;Chawarma", "name": "Fayrouz", "opening_hours": "We 11:00-06:00; Th 11:00-06:00; Fr 11:00-06:00; Sa 11:00-06:00; Su 11:00-06:00; Mo 11:00-06:00; Tu 11:00-06:00", "opening_hours:covid19": "off", "phone": "+212 5 22 20 03 29", "website": "https://www.restaurantfayrouz.com/"}}, {"type": "node", "id": 7563657090, "lat": 33.5938919, "lon": -7.6348494, "tags": {"addr:city": "Casablanca", "addr:housenumber": "305", "addr:postcode": "20000", "addr:street": "Boulevard Ziraoui", "amenity": "restaurant", "cuisine": "ice_cream", "name": "Happy Rolls", "opening_hours:covid19": "off", "phone": "+212 6 93 73 18 66", "website": "https://www.facebook.com/HappyRollsCasa/"}}, {"type": "node", "id": 7923968085, "lat": 33.5889659, "lon": -7.6470317, "tags": {"amenity": "restaurant", "name": "Gapi"}}, {"type": "node", "id": 8303537061, "lat": 33.5091824, "lon": -7.6711135, "tags": {"addr:city": "Casablanca \u2d5c\u2d30\u2d37\u2d37\u2d30\u2d54\u2d5c \u2d5c\u2d53\u2d4e\u2d4d\u2d49\u2d4d\u2d5c \u0627\u0644\u062f\u0627\u0631 \u0627\u0644\u0628\u064a\u0636\u0627\u0621", "addr:postcode": "20190", "addr:street": "Centre Commercial CasaView ETG 1 Magasin 17", "air_conditioning": "yes", "amenity": "restaurant", "cuisine": "regional;french;italian;european;moroccan", "delivery": "yes", "diet:halal": "yes", "internet_access": "wlan", "name": "Bonne Bouch\u00e9e", "opening_hours": "Mo-Su 08:00-22:00", "phone": "+212 6 55 21 32 37", "takeaway": "yes", "website": "https://www.bonne-bouchee.com/"}}, {"type": "node", "id": 8751278745, "lat": 33.4817183, "lon": -7.5947141, "tags": {"addr:street": "Avenue du Promontoire", "amenity": "restaurant", "cuisine": "european", "name": "Le Resto by Palmeraie Country Club", "opening_hours": "Mo-Su 07:00-23:00", "opening_hours:covid19": "Mo-Su 08:00-18:00", "phone": "+212 5 20 80 02 00", "website": "https://www.palmeraiecountryclub.com/"}}, {"type": "node", "id": 8755300046, "lat": 33.5928022, "lon": -7.6442567, "tags": {"addr:street": "Rue Bab Ennasr \u0632\u0646\u0642\u0629 \u0628\u0627\u0628 \u0627\u0644\u0646\u0635\u0631", "amenity": "restaurant", "check_date": "2025-04-09", "diet:halal": "yes", "mobile": "+212 6 67 75 50 62", "name": "Oncle Blend"}}, {"type": "node", "id": 8757691672, "lat": 33.5626827, "lon": -7.6387538, "tags": {"addr:city": "Casablanca", "addr:housenumber": "34", "addr:postcode": "20410", "addr:street": "Rue Ahmed Akkad, akrad", "amenity": "restaurant", "cuisine": "korean", "name": "Osawa", "opening_hours:covid19": "Mo-Sa 08:00-20:00", "phone": "+212 6 12 96 72 41", "website": "https://www.facebook.com/osowa.restaurant/"}}, {"type": "node", "id": 8758117408, "lat": 33.5971125, "lon": -7.6357215, "tags": {"addr:city": "Casablanca", "addr:postcode": "20000", "addr:street": "10 Rue de la R\u00e9union", "amenity": "restaurant", "contact:facebook": "https://www.facebook.com/lafritecasablanca/", "cuisine": "american;burger", "diet:halal": "yes", "diet:meat": "yes", "diet:non-vegetarian": "yes", "diet:vegetarian": "yes", "level": "1", "name": "La Frite", "opening_hours": "Mo-Su 11:00-22:00", "phone": "+212 699 090909", "takeaway": "yes"}}, {"type": "node", "id": 8758625992, "lat": 33.5926124, "lon": -7.6067836, "tags": {"addr:city": "Casablanca", "addr:postcode": "20002", "amenity": "restaurant", "cuisine": "sandwich", "name": "Zorba", "name:fr": "Zorba", "opening_hours": "Mo-Fr 08:00-17:00"}}, {"type": "node", "id": 8758665513, "lat": 33.5920846, "lon": -7.6775042, "tags": {"amenity": "restaurant", "name": "LaFrite"}}, {"type": "node", "id": 8874343052, "lat": 33.5776371, "lon": -7.6246794, "tags": {"amenity": "restaurant", "cuisine": "sushi;thai", "name": "Taiyo"}}, {"type": "node", "id": 8874343053, "lat": 33.5776527, "lon": -7.6247357, "tags": {"amenity": "restaurant", "cuisine": "italian", "name": "El Bistrot de Papa"}}, {"type": "node", "id": 9165337916, "lat": 33.5673373, "lon": -7.6940996, "tags": {"addr:city": "Casablanca \u0627\u0644\u062f\u0627\u0631 \u0627\u0644\u0628\u064a\u0636\u0627\u0621", "addr:housenumber": "45", "addr:postcode": "20230", "addr:street": "Rue 29 hay hassani", "amenity": "restaurant", "cuisine": "sushi;asian", "name": "Sushi Live", "opening_hours": "Mo-Su 11:00-23:00", "phone": "+212 5 22 65 70 55", "website": "https://sushilive.ma"}}, {"type": "node", "id": 9165452074, "lat": 33.5949636, "lon": -7.6780468, "tags": {"addr:housenumber": "47", "addr:postcode": "20250", "addr:street": "Boulevard de la Corniche \u0634\u0627\u0631\u0639 \u0627\u0644\u0643\u0648\u0631\u0646\u064a\u0634", "amenity": "restaurant", "cuisine": "international", "name": "Le Pershing", "phone": "+212 6 62 62 61 14"}}, {"type": "node", "id": 9165452075, "lat": 33.5948563, "lon": -7.6781193, "tags": {"addr:housenumber": "47", "addr:postcode": "20250", "addr:street": "Boulevard de la Corniche \u0634\u0627\u0631\u0639 \u0627\u0644\u0643\u0648\u0631\u0646\u064a\u0634", "amenity": "restaurant", "cuisine": "ice_cream", "name": "Oliveri"}}, {"type": "node", "id": 9267144215, "lat": 33.5485908, "lon": -7.6373926, "tags": {"addr:city": "Casablanca \u2d5c\u2d30\u2d37\u2d37\u2d30\u2d54\u2d5c \u2d5c\u2d53\u2d4e\u2d4d\u2d49\u2d4d\u2d5c \u0627\u0644\u062f\u0627\u0631 \u0627\u0644\u0628\u064a\u0636\u0627\u0621", "addr:housenumber": "264", "addr:street": "Route de l'Oasis", "amenity": "restaurant", "check_date": "2025-02-19", "name": "OLEA", "website": "https://www.olea.ma/"}}, {"type": "node", "id": 9397504641, "lat": 33.5947743, "lon": -7.6117538, "tags": {"amenity": "restaurant", "name": "Resto Grill Salaheddine"}}, {"type": "node", "id": 9521289917, "lat": 33.5905909, "lon": -7.6381864, "tags": {"addr:street": "Rue Ahmed El Mokri \u0632\u0646\u0642\u0629 \u0623\u062d\u0645\u062f \u0627\u0644\u0645\u0642\u0631\u064a", "amenity": "restaurant", "name": "Organic Kitchen"}}, {"type": "node", "id": 9613551605, "lat": 33.5818215, "lon": -7.6223122, "tags": {"amenity": "restaurant", "name": "Pyramides Dor\u00e9es"}}, {"type": "node", "id": 9613551607, "lat": 33.5809882, "lon": -7.6229868, "tags": {"amenity": "restaurant", "name": "Caf\u00e9 Restaurant Tikita"}}, {"type": "node", "id": 9620605640, "lat": 33.5804867, "lon": -7.6234291, "tags": {"amenity": "restaurant", "name": "Le Duc Casablanca"}}, {"type": "node", "id": 9620628032, "lat": 33.5825841, "lon": -7.6222062, "tags": {"amenity": "restaurant", "diet:mediterranean": "yes", "name": "Casadarna"}}, {"type": "node", "id": 9620715111, "lat": 33.5826823, "lon": -7.6228888, "tags": {"amenity": "restaurant", "cuisine": "vietnamese", "name": "Bonsai"}}, {"type": "node", "id": 9825283717, "lat": 33.5867588, "lon": -7.6294077, "tags": {"addr:street": "Rue Abou Kacem Achchabi", "amenity": "restaurant", "cuisine": "thai", "name": "Chee is Tha\u00ef"}}, {"type": "node", "id": 9863764618, "lat": 33.5963688, "lon": -7.6750983, "tags": {"amenity": "restaurant", "name:en": "Tropicana Terrasse"}}, {"type": "node", "id": 9864101018, "lat": 33.5891189, "lon": -7.6325717, "tags": {"amenity": "restaurant", "name": "Bangkok Me", "name:en": "Bangkok Me"}}, {"type": "node", "id": 9864284217, "lat": 33.5963106, "lon": -7.6417406, "tags": {"amenity": "restaurant", "name:en": "Badinjane"}}, {"type": "node", "id": 10140169962, "lat": 33.5705562, "lon": -7.5508866, "tags": {"amenity": "restaurant", "cuisine": "barbecue", "diet:meat": "yes", "name": "\u0645\u062c\u0632\u0631\u0629 \u0648 \u0645\u0634\u0648\u0627\u0629 \u0627\u0644\u0645\u0633\u062c\u062f", "phone": "+212 6 33 64 41 96"}}, {"type": "node", "id": 10148949017, "lat": 33.5949273, "lon": -7.6121495, "tags": {"addr:street": "Boulevard Mohammed V \u0634\u0627\u0631\u0639 \u0645\u062d\u0645\u062f \u0627\u0644\u062e\u0627\u0645\u0633", "amenity": "restaurant", "name": "Chez Michel et Hafida"}}, {"type": "node", "id": 10162196418, "lat": 33.6079511, "lon": -7.6290521, "tags": {"amenity": "restaurant", "name:fr": "The Wiew H2"}}, {"type": "node", "id": 10162212717, "lat": 33.600085, "lon": -7.617311, "tags": {"amenity": "restaurant", "name": "caf\u00e9 central"}}, {"type": "node", "id": 10262607709, "lat": 33.5925267, "lon": -7.6311415, "tags": {"amenity": "restaurant", "cuisine": "japanese;sushi", "internet_access": "wlan", "name:en": "Yoka Sushi", "website": "https://www.yokasushi.com/"}}, {"type": "node", "id": 10274809409, "lat": 33.5977705, "lon": -7.6141578, "tags": {"addr:street": "Rue Sidi Belyout, Casablanca 20000, Marruecos", "amenity": "restaurant", "name:es": "Brasserie La Tour"}}, {"type": "node", "id": 10274821309, "lat": 33.6038798, "lon": -7.6215009, "tags": {"addr:street": "31 IMM RUE EL ARSA, Casablanca 20250, Marruecos", "amenity": "restaurant", "name:es": "Dar Dad\u00e1", "opening_hours": "Mo-Sa 14:00-15:30"}}, {"type": "node", "id": 10290973078, "lat": 33.5932677, "lon": -7.6316321, "tags": {"amenity": "restaurant", "cuisine": "fast_food;pizza", "name": "Chrono Pizza"}}, {"type": "node", "id": 10292637410, "lat": 33.5906169, "lon": -7.6345122, "tags": {"addr:street": "Rue Najib Mahfoud \u0632\u0646\u0642\u0629 \u0646\u062c\u064a\u0628 \u0645\u062d\u0641\u0648\u0638", "amenity": "restaurant", "name:fr": "iloli"}}, {"type": "node", "id": 10303350210, "lat": 33.6075133, "lon": -7.6560981, "tags": {"amenity": "restaurant", "name:fr": "Corniche by Palmerie"}}, {"type": "node", "id": 10303350309, "lat": 33.6075325, "lon": -7.6559439, "tags": {"amenity": "restaurant", "name:fr": "Le Beret"}}, {"type": "node", "id": 10314397112, "lat": 33.5938864, "lon": -7.6322079, "tags": {"amenity": "restaurant", "name:fr": "ENSO"}}, {"type": "node", "id": 10541977574, "lat": 33.6076856, "lon": -7.536495, "tags": {"amenity": "restaurant", "cuisine": "sushi", "name": "Clap"}}, {"type": "node", "id": 10602217105, "lat": 33.4645413, "lon": -7.6042838, "tags": {"amenity": "restaurant", "name:fr": "Club house Tony Jacklin golf"}}, {"type": "node", "id": 10678610006, "lat": 33.5955266, "lon": -7.6153015, "tags": {"addr:housenumber": "76", "addr:street": "Rue El Oraibi Jilali", "amenity": "restaurant"}}, {"type": "node", "id": 10766409905, "lat": 33.592224, "lon": -7.6044895, "tags": {"addr:street": "Rue El Bakri", "amenity": "restaurant", "name:en": "Amici Miei"}}, {"type": "node", "id": 10811282763, "lat": 33.5731602, "lon": -7.6566368, "tags": {"addr:city": "Casablanca \u2d5c\u2d30\u2d37\u2d37\u2d30\u2d54\u2d5c \u2d5c\u2d53\u2d4e\u2d4d\u2d49\u2d4d\u2d5c \u0627\u0644\u062f\u0627\u0631 \u0627\u0644\u0628\u064a\u0636\u0627\u0621", "addr:postcode": "20250", "addr:street": "Rue d'Ifrane", "amenity": "restaurant", "name": "I Ristorante Italiano", "phone": "+212 5 22 94 61 60", "website": "https://www.iresto.ma/"}}, {"type": "node", "id": 10826793993, "lat": 33.5887671, "lon": -7.6437315, "tags": {"addr:postcode": "20250", "addr:street": "Avenue Ahmed Charci \u0634\u0627\u0631\u0639 \u0623\u062d\u0645\u062f \u0627\u0644\u0634\u0631\u0633\u064a", "amenity": "restaurant", "cuisine": "italian", "name": "Big Nonna", "phone": "+212 5 20 70 70 88"}}, {"type": "node", "id": 10870709205, "lat": 33.4209602, "lon": -7.8541004, "tags": {"amenity": "restaurant", "name:en": "Couscous"}}, {"type": "node", "id": 10881899405, "lat": 33.4114567, "lon": -7.8535223, "tags": {"addr:street": "\u2d30\u2d59\u2d53\u2d3d \u2d4d\u2d30\u2d4d\u2d4d\u2d30 \u2d59\u2d53\u2d3d\u2d30\u2d62\u2d4f\u2d30", "amenity": "restaurant", "name:en": "Tajine"}}, {"type": "node", "id": 10899907077, "lat": 33.5758003, "lon": -7.7074585, "tags": {"amenity": "restaurant", "brand": "Pizza Hut", "brand:ar": "\u0628\u064a\u062a\u0632\u0627 \u0647\u062a", "brand:fr": "Pizza Hut", "brand:website": "https://www.pizzahutmaroc.ma/", "brand:wikidata": "Q191615", "brand:wikipedia": "fr:Pizza Hut", "cuisine": "pizza", "name": "Pizza Hut", "name:ar": "\u0628\u064a\u062a\u0632\u0627 \u0647\u062a", "name:fr": "Pizza Hut"}}, {"type": "node", "id": 10931996305, "lat": 33.5936539, "lon": -7.6024627, "tags": {"addr:housenumber": "355", "addr:postcode": "20250", "addr:street": "Boulevard Mohammed V \u0634\u0627\u0631\u0639 \u0645\u062d\u0645\u062f \u0627\u0644\u062e\u0627\u0645\u0633", "amenity": "restaurant", "name:en": "Ducasse"}}, {"type": "node", "id": 11059291305, "lat": 33.5915943, "lon": -7.6776565, "tags": {"addr:postcode": "20180", "addr:street": "Boulevard de l'Ocean Atlantique", "amenity": "restaurant", "name:en": "Le Basmane"}}, {"type": "node", "id": 11073676986, "lat": 33.3902957, "lon": -7.5604635, "tags": {"amenity": "restaurant", "name": "La Madrina"}}, {"type": "node", "id": 11077528745, "lat": 33.5834902, "lon": -7.6315558, "tags": {"amenity": "restaurant", "cuisine": "pizza;italian;pasta;dessert", "name": "Street Pizzeria Napoletana", "phone": "+212 5 20 21 31 31", "takeaway": "yes", "toilets": "yes", "toilets:wheelchair": "no", "website": "http://www.streetpizza.ma/"}}, {"type": "node", "id": 11123515218, "lat": 33.5850284, "lon": -7.631509, "tags": {"amenity": "restaurant", "cuisine": "arab;sandwich", "name": "Don Bocadillio", "payment:credit_cards": "yes", "payment:debit_cards": "yes", "takeaway": "yes"}}, {"type": "node", "id": 11148393708, "lat": 33.5834982, "lon": -7.6315375, "tags": {"amenity": "restaurant", "name": "Street Pizzeria Napoletana"}}, {"type": "node", "id": 11148393709, "lat": 33.5881411, "lon": -7.6312429, "tags": {"amenity": "restaurant", "name:en": "Mercato Popolare"}}, {"type": "node", "id": 11148393908, "lat": 33.5896524, "lon": -7.632145, "tags": {"addr:street": "Avenue Hassan Souktani \u0634\u0627\u0631\u0639 \u062d\u0633\u0646 \u0627\u0644\u0633\u0643\u062a\u0627\u0646\u064a", "amenity": "restaurant", "cuisine": "italian", "name": "Le Petit Italien"}}, {"type": "node", "id": 11148412105, "lat": 33.5842585, "lon": -7.6312796, "tags": {"amenity": "restaurant", "check_date:opening_hours": "2026-04-16", "name": "Rep\u00e8re du Gout", "name:fr": "Rep\u00e8re du Gout", "opening_hours:signed": "no"}}, {"type": "node", "id": 11148412205, "lat": 33.5895737, "lon": -7.6317271, "tags": {"amenity": "restaurant", "name:en": "La Bufala"}}, {"type": "node", "id": 11216587900, "lat": 33.594017, "lon": -7.6148772, "tags": {"amenity": "restaurant", "name": "\u0634\u0627\u0648\u0631\u0645\u0627 \u0627\u0644\u062d\u0627\u062c \u0645\u062a\u0648\u0644\u064a"}}, {"type": "node", "id": 11216871964, "lat": 33.5707703, "lon": -7.5977321, "tags": {"amenity": "restaurant", "name": "\u0627\u0644\u0634\u0627\u0641 \u0623\u0646\u0648\u0627\u0631"}}, {"type": "node", "id": 11216899279, "lat": 33.5952225, "lon": -7.6112289, "tags": {"amenity": "restaurant", "name": "\u0645\u0637\u0639\u0645 \u0645\u0635\u0631\u064a"}}, {"type": "node", "id": 11307500012, "lat": 33.3711917, "lon": -7.5802499, "tags": {"amenity": "restaurant", "name": "Naturellement bon"}}, {"type": "node", "id": 11410285775, "lat": 33.5947079, "lon": -7.612674, "tags": {"amenity": "restaurant"}}, {"type": "node", "id": 11410285780, "lat": 33.594542, "lon": -7.6115928, "tags": {"amenity": "restaurant"}}, {"type": "node", "id": 11410285781, "lat": 33.5945556, "lon": -7.6116442, "tags": {"amenity": "restaurant"}}, {"type": "node", "id": 11410285782, "lat": 33.5949847, "lon": -7.6117512, "tags": {"amenity": "restaurant"}}, {"type": "node", "id": 11410285783, "lat": 33.5949018, "lon": -7.6115289, "tags": {"amenity": "restaurant", "cuisine": "fish;local;mediterranean", "name:fr": "Grillades Poissons Chez Abdo", "outdoor_seating": "yes", "phone": "+212 6 49 57 15 39"}}, {"type": "node", "id": 11410285784, "lat": 33.5948702, "lon": -7.611371, "tags": {"amenity": "restaurant"}}, {"type": "node", "id": 11410285785, "lat": 33.595288, "lon": -7.6119494, "tags": {"amenity": "restaurant", "name:en": "Snack Anwal"}}, {"type": "node", "id": 11410285787, "lat": 33.5952329, "lon": -7.611699, "tags": {"amenity": "restaurant", "name:en": "Snack Rimini"}}, {"type": "node", "id": 11410285788, "lat": 33.5952723, "lon": -7.6126263, "tags": {"amenity": "restaurant", "name:en": "Snack Borj"}}, {"type": "node", "id": 11410285789, "lat": 33.5953058, "lon": -7.6129605, "tags": {"amenity": "restaurant", "name:en": "Snack Majorelle"}}, {"type": "node", "id": 11410362769, "lat": 33.591712, "lon": -7.6151442, "tags": {"amenity": "restaurant", "name:en": "Salade Verte"}}, {"type": "node", "id": 11410362770, "lat": 33.5915628, "lon": -7.6152182, "tags": {"amenity": "restaurant"}}, {"type": "node", "id": 11410362771, "lat": 33.5915784, "lon": -7.6152596, "tags": {"amenity": "restaurant"}}, {"type": "node", "id": 11410362871, "lat": 33.5945193, "lon": -7.6116572, "tags": {"amenity": "restaurant"}}, {"type": "node", "id": 11410362872, "lat": 33.5947057, "lon": -7.6114777, "tags": {"amenity": "restaurant"}}, {"type": "node", "id": 11410362873, "lat": 33.5946179, "lon": -7.6115033, "tags": {"amenity": "restaurant"}}, {"type": "node", "id": 11410362874, "lat": 33.5949538, "lon": -7.6124246, "tags": {"amenity": "restaurant"}}, {"type": "node", "id": 11410362875, "lat": 33.5950134, "lon": -7.612281, "tags": {"amenity": "restaurant"}}, {"type": "node", "id": 11410362876, "lat": 33.5950036, "lon": -7.6120965, "tags": {"amenity": "restaurant"}}, {"type": "node", "id": 11410362877, "lat": 33.5950006, "lon": -7.6118522, "tags": {"amenity": "restaurant"}}, {"type": "node", "id": 11410362878, "lat": 33.5949495, "lon": -7.6118105, "tags": {"amenity": "restaurant"}}, {"type": "node", "id": 11410362879, "lat": 33.5949704, "lon": -7.6116973, "tags": {"amenity": "restaurant"}}, {"type": "node", "id": 11410362880, "lat": 33.594924, "lon": -7.6113953, "tags": {"amenity": "restaurant"}}, {"type": "node", "id": 11410362881, "lat": 33.5949176, "lon": -7.6113533, "tags": {"amenity": "restaurant"}}, {"type": "node", "id": 11410362882, "lat": 33.5947917, "lon": -7.6113908, "tags": {"amenity": "restaurant"}}, {"type": "node", "id": 11410362884, "lat": 33.5953819, "lon": -7.6129374, "tags": {"amenity": "restaurant"}}, {"type": "node", "id": 11410362891, "lat": 33.5944609, "lon": -7.6787736, "tags": {"amenity": "restaurant", "name:en": "La Veranda"}}, {"type": "node", "id": 11410362970, "lat": 33.5945479, "lon": -7.6115112, "tags": {"amenity": "restaurant"}}, {"type": "node", "id": 11410362971, "lat": 33.5948983, "lon": -7.6120796, "tags": {"amenity": "restaurant"}}, {"type": "node", "id": 11410362972, "lat": 33.5949241, "lon": -7.6122894, "tags": {"amenity": "restaurant"}}, {"type": "node", "id": 11410362973, "lat": 33.5949383, "lon": -7.6117611, "tags": {"amenity": "restaurant"}}, {"type": "node", "id": 11410362974, "lat": 33.5949464, "lon": -7.6115137, "tags": {"amenity": "restaurant"}}, {"type": "node", "id": 11410362977, "lat": 33.5950215, "lon": -7.6682519, "tags": {"amenity": "restaurant", "brand": "Pizza Hut", "brand:wikidata": "Q191615", "cuisine": "pizza", "name": "Pizza Hut", "name:en": "Pizza Hut"}}, {"type": "node", "id": 11410362978, "lat": 33.6049237, "lon": -7.6579938, "tags": {"addr:housenumber": "56", "addr:street": "Boulevard de la Corniche \u0634\u0627\u0631\u0639 \u0627\u0644\u0643\u0648\u0631\u0646\u064a\u0634", "amenity": "restaurant", "bar": "yes", "check_date": "2025-04-22", "contact:instagram": "https://www.instagram.com/manaos_casablanca/", "mobile": "+212 7 06 40 08 48", "name": "Manaos", "website:booking": "https://book.saturdayzapp.com/Manaos"}}, {"type": "node", "id": 11410363070, "lat": 33.5946315, "lon": -7.612301, "tags": {"amenity": "restaurant"}}, {"type": "node", "id": 11410363071, "lat": 33.5950244, "lon": -7.612385, "tags": {"amenity": "restaurant"}}, {"type": "node", "id": 11410363072, "lat": 33.5950041, "lon": -7.612173, "tags": {"amenity": "restaurant"}}, {"type": "node", "id": 11410363073, "lat": 33.594832, "lon": -7.6113829, "tags": {"amenity": "restaurant"}}, {"type": "node", "id": 11410363170, "lat": 33.5949321, "lon": -7.6114582, "tags": {"amenity": "restaurant"}}, {"type": "node", "id": 11410363183, "lat": 33.593626, "lon": -7.6161766, "tags": {"amenity": "restaurant", "name:en": "La Perche"}}, {"type": "node", "id": 11410363369, "lat": 33.594554, "lon": -7.6117055, "tags": {"amenity": "restaurant"}}, {"type": "node", "id": 11410363370, "lat": 33.5949903, "lon": -7.6118004, "tags": {"amenity": "restaurant"}}, {"type": "node", "id": 11410363371, "lat": 33.5947606, "lon": -7.6114046, "tags": {"amenity": "restaurant"}}, {"type": "node", "id": 11410363377, "lat": 33.5935398, "lon": -7.6782666, "tags": {"amenity": "restaurant", "name": "Le Calypso"}}, {"type": "node", "id": 11410363378, "lat": 33.5948941, "lon": -7.6780807, "tags": {"addr:street": "Boulevard de la Corniche \u0634\u0627\u0631\u0639 \u0627\u0644\u0643\u0648\u0631\u0646\u064a\u0634", "amenity": "restaurant", "name": "El Tucan"}}, {"type": "node", "id": 11410364169, "lat": 33.5950205, "lon": -7.6122345, "tags": {"amenity": "restaurant"}}, {"type": "node", "id": 11410863469, "lat": 33.5943629, "lon": -7.6169789, "tags": {"amenity": "restaurant", "check_date": "2025-05-17", "cuisine": "moroccan", "name": "Restaurant Marocain Al Mamoun \u0645\u0637\u0639\u0645 \u0645\u063a\u0631\u0628\u064a \u0627\u0644\u0645\u0627\u0645\u0648\u0646", "name:ar": "\u0645\u0637\u0639\u0645 \u0645\u063a\u0631\u0628\u064a \u0627\u0644\u0645\u0627\u0645\u0648\u0646", "name:fr": "Restaurant Marocain Al Mamoun", "operator": "H\u00f4tel Al Mamoun"}}, {"type": "node", "id": 11413664280, "lat": 33.5881245, "lon": -7.6177522, "tags": {"amenity": "restaurant", "name": "La Concorde"}}, {"type": "node", "id": 11446167665, "lat": 33.5896958, "lon": -7.6274645, "tags": {"amenity": "restaurant", "cuisine": "italian", "name": "Casa jose", "payment:credit_cards": "yes", "payment:debit_cards": "yes"}}, {"type": "node", "id": 11822391928, "lat": 33.5886969, "lon": -7.632462, "tags": {"amenity": "restaurant", "diet:vegan": "yes", "diet:vegetarian": "yes", "email": "niyacasa@gmail.com", "level": "0", "name": "Niya", "opening_hours": "Tu-Sa 10:00-21:00; Su 10:00-17:00", "phone": "+212 6 11 18 93 90", "toilets": "yes", "toilets:access": "customers", "toilets:wheelchair": "no", "website": "https://niya-casablanca.com/", "wheelchair": "limited"}}, {"type": "node", "id": 11891921341, "lat": 33.6058793, "lon": -7.628809, "tags": {"amenity": "restaurant", "cuisine": "chinese", "name": "Bambou Panda"}}, {"type": "node", "id": 11911762299, "lat": 33.6042229, "lon": -7.6328261, "tags": {"addr:housenumber": "138", "addr:street": "Boulevard Moulay Youssef \u0634\u0627\u0631\u0639 \u0645\u0648\u0644\u0627\u064a \u064a\u0648\u0633\u0641", "amenity": "restaurant", "name": "Le Melliber"}}, {"type": "node", "id": 11945845060, "lat": 33.5655723, "lon": -7.6263224, "tags": {"addr:street": "Boulevard Abdelmoumen \u0634\u0627\u0631\u0639 \u0639\u0628\u062f \u0627\u0644\u0645\u0648\u0645\u0646", "amenity": "restaurant", "check_date": "2024-05-30", "internet_access": "no", "name": "Chez Robio", "opening_hours": "Mo-Su 09:00-21:00", "phone": "+212 6 50 52 55 96", "wheelchair": "no"}}, {"type": "node", "id": 12113618492, "lat": 33.5887547, "lon": -7.6400219, "tags": {"addr:street": "Urban Square", "amenity": "restaurant", "cuisine": "spanish", "diet:halal": "yes", "name": "Pepe Luis"}}, {"type": "node", "id": 12113618497, "lat": 33.5891458, "lon": -7.6402696, "tags": {"addr:housenumber": "201", "addr:street": "Boulevard d'Anfa \u0634\u0627\u0631\u0639 \u0623\u0646\u0641\u0627", "amenity": "restaurant", "cuisine": "turkish", "email": "info@ahmetchef.com", "mobile": "+212 6 35 68 32 37", "name": "Ahmet Chef", "website": "https://www.ahmetchef.com/"}}, {"type": "node", "id": 12113877135, "lat": 33.5871666, "lon": -7.6395445, "tags": {"addr:housenumber": "32", "addr:street": "Rue Normandie \u0632\u0646\u0642\u0629 \u0646\u0648\u0631\u0645\u0627\u0646\u062f\u064a", "amenity": "restaurant", "check_date": "2026-04-23", "name": "La Grande Brasserie", "payment:apple_pay": "yes", "payment:cards": "yes", "payment:cash": "yes", "payment:contactless": "yes", "payment:credit_cards": "yes", "payment:debit_cards": "yes", "payment:mastercard": "yes", "payment:visa": "yes", "phone": "+212 5 22 39 72 27", "start_date": "2020-09-12", "website": "https://www.lagrandebrasserie.ma/"}}, {"type": "node", "id": 12115903247, "lat": 33.5878325, "lon": -7.638078, "tags": {"addr:housenumber": "10", "addr:postcode": "20100", "addr:street": "Rue Al Mansour Saadi \u0632\u0646\u0642\u0629 \u0627\u0644\u0645\u0646\u0635\u0648\u0631 \u0627\u0644\u0633\u0639\u062f\u064a", "amenity": "restaurant", "bar": "yes", "name": "Japonico"}}, {"type": "node", "id": 12144566066, "lat": 33.588257, "lon": -7.6393618, "tags": {"addr:housenumber": "43", "addr:street": "Rue Normandie \u0632\u0646\u0642\u0629 \u0646\u0648\u0631\u0645\u0627\u0646\u062f\u064a", "amenity": "restaurant", "check_date": "2025-04-01", "name": "Milk + Honey"}}, {"type": "node", "id": 12144692152, "lat": 33.5872625, "lon": -7.6384661, "tags": {"addr:street": "Rue Oumayma Essayeh \u0632\u0646\u0642\u0629 \u0623\u0645\u064a\u0645\u0629 \u0627\u0644\u0633\u0627\u064a\u062d", "amenity": "restaurant", "check_date": "2025-05-06", "name": "Pastrama"}}, {"type": "node", "id": 12144692188, "lat": 33.5883982, "lon": -7.6374661, "tags": {"addr:postcode": "20100", "addr:street": "Rue Al Mansour Saadi \u0632\u0646\u0642\u0629 \u0627\u0644\u0645\u0646\u0635\u0648\u0631 \u0627\u0644\u0633\u0639\u062f\u064a", "amenity": "restaurant", "branch": "Racine", "brand": "La Grillardi\u00e8re", "check_date": "2025-08-12", "name": "La Grillardi\u00e8re", "phone": "+212 5 22 94 58 40", "website": "https://lagrillardiere.ma/"}}, {"type": "node", "id": 12223088471, "lat": 33.5192231, "lon": -7.693517, "tags": {"addr:city": "Casablanca,", "addr:housenumber": "1", "addr:postcode": "20190", "addr:street": "Nationale Route Lissasfa", "amenity": "restaurant", "cuisine": "pizza;burger;barbecue;breakfast;juice;dessert;moroccan;coffee_shop", "diet:halal": "yes", "name": "HL Burger - Holy Choco - Crust & Grill"}}, {"type": "node", "id": 12323348687, "lat": 33.5815049, "lon": -7.6398128, "tags": {"addr:street": "Rue Al Mansour Al Abidi \u0632\u0646\u0642\u0629 \u0627\u0644\u0645\u0646\u0635\u0648\u0631 \u0627\u0644\u0639\u0627\u0628\u062f\u064a", "amenity": "restaurant", "check_date": "2024-11-08", "name": "RESTAURANT MONO-CLUB"}}, {"type": "node", "id": 12410384692, "lat": 33.5877316, "lon": -7.6423075, "tags": {"amenity": "restaurant", "contact:instagram": "https://www.instagram.com/ilferrarino/", "cuisine": "italian", "email": "info@ilferrarino.com", "name": "Il Ferrarino", "phone": "+212 5 22 94 12 36", "website": "https://www.ilferrarino.com/"}}, {"type": "node", "id": 12479658706, "lat": 33.5137405, "lon": -7.8191865, "tags": {"addr:city": "Dar Bouazza \u2d37\u2d30\u2d55 \u2d31\u2d53\u2d44\u2d63\u2d63\u2d30 \u062f\u0627\u0631 \u0628\u0648\u0639\u0632\u0629", "addr:place": "Le Mercato d'Anfa", "amenity": "restaurant", "brand": "Pizza Hut", "brand:wikidata": "Q191615", "cuisine": "pizza", "level": "0", "name": "Pizza Hut", "opening_hours": "Mo-Su 11:30-23:30"}}, {"type": "node", "id": 12487542380, "lat": 33.5965112, "lon": -7.6144385, "tags": {"addr:city": "Casablanca \u2d5c\u2d30\u2d37\u2d37\u2d30\u2d54\u2d5c \u2d5c\u2d53\u2d4e\u2d4d\u2d49\u2d4d\u2d5c \u0627\u0644\u062f\u0627\u0631 \u0627\u0644\u0628\u064a\u0636\u0627\u0621", "amenity": "restaurant", "check_date": "2025-01-10", "cuisine": "moroccan", "name": "Restaurant Les Fleurs \u0645\u0637\u0639\u0645 \u0627\u0644\u0632\u0647\u0648\u0631", "name:ar": "\u0645\u0637\u0639\u0645 \u0627\u0644\u0632\u0647\u0648\u0631", "name:fr": "Restaurant Les Fleurs"}}, {"type": "node", "id": 12717183704, "lat": 33.5852973, "lon": -7.6458199, "tags": {"addr:housenumber": "23", "addr:street": "Rue Ali Abderrazzak \u0632\u0646\u0642\u0629 \u0639\u0644\u064a \u0639\u0628\u062f \u0627\u0644\u0631\u0632\u0627\u0642", "amenity": "restaurant", "check_date": "2025-03-31", "name": "Le Mynt", "phone": "+212 5 22 39 53 37"}}, {"type": "node", "id": 12732241308, "lat": 33.5884516, "lon": -7.6449671, "tags": {"addr:street": "Avenue Moulay Rachid \u0645\u062d\u062c \u0645\u0648\u0644\u0627\u064a \u0631\u0634\u064a\u062f", "amenity": "restaurant", "check_date": "2025-04-06", "name": "Le Marly", "phone": "+212 5 22 94 66 76", "website": "https://lemarly.netlify.app/"}}, {"type": "node", "id": 12773529324, "lat": 33.6050003, "lon": -7.6579226, "tags": {"addr:housenumber": "56", "addr:street": "Boulevard de la Corniche \u0634\u0627\u0631\u0639 \u0627\u0644\u0643\u0648\u0631\u0646\u064a\u0634", "amenity": "restaurant", "check_date": "2025-04-22", "contact:instagram": "https://www.instagram.com/kamanja55_casablanca/", "cuisine": "oriental", "mobile": "+212 6 01 01 40 99", "name": "Kamanja 55", "website:booking": "https://book.saturdayzapp.com/Kamanja"}}, {"type": "node", "id": 12888245398, "lat": 33.5880626, "lon": -7.6397864, "tags": {"addr:street": "Rue Normandie \u0632\u0646\u0642\u0629 \u0646\u0648\u0631\u0645\u0627\u0646\u062f\u064a", "amenity": "restaurant", "check_date": "2025-06-05", "name": "Meat Point"}}, {"type": "node", "id": 12909601291, "lat": 33.5934607, "lon": -7.6548347, "tags": {"amenity": "restaurant", "check_date": "2025-04-26", "contact:instagram": "https://www.instagram.com/koyacasaofficial/", "contact:tiktok": "https://www.tiktok.com/@koya.casablanca", "email": "reservation@koyacasablanca.com", "mobile": "+212 6 62 32 71 78", "name": "K\u00f4ya", "phone": "+212 5 22 36 95 53", "website": "https://koyacasablanca.com/", "website:booking": "https://book.eatnow.ma/en/koya-casablanca", "website:menu": "https://koyacasablanca.com/Koya-Casablanca-Food-Menu"}}, {"type": "node", "id": 12909627495, "lat": 33.5998233, "lon": -7.6549199, "tags": {"addr:housenumber": "20", "addr:street": "Boulevard Driss Slaoui \u0634\u0627\u0631\u0639 \u0625\u062f\u0631\u064a\u0633 \u0627\u0644\u0633\u0644\u0627\u0648\u064a", "air_conditioning": "yes", "amenity": "restaurant", "brewery": "various", "contact:facebook": "https://www.facebook.com/profile.php?id=100095409095281", "contact:instagram": "https://www.instagram.com/leopard.casablanca/", "diet:halal": "yes", "email": "contact@leopardcasablanca.com", "indoor_seating": "yes", "mobile": "+212 6 69 06 06 79", "name": "Leopard", "outdoor_seating": "yes", "payment:cash": "yes", "payment:credit_cards": "yes", "payment:debit_cards": "yes", "smoking": "yes", "website": "https://leopardcasablanca.com/"}}, {"type": "node", "id": 12909627496, "lat": 33.6006691, "lon": -7.6550357, "tags": {"addr:housenumber": "21", "addr:street": "Boulevard Driss Slaoui \u0634\u0627\u0631\u0639 \u0625\u062f\u0631\u064a\u0633 \u0627\u0644\u0633\u0644\u0627\u0648\u064a", "amenity": "restaurant", "bar": "yes", "check_date": "2025-06-12", "contact:facebook": "https://www.facebook.com/people/Lavenue-Brasserie-Nouvelle-Casablanca", "contact:instagram": "https://www.instagram.com/lavenuecasablanca", "contact:tripadvisor": "https://www.tripadvisor.fr/Restaurant_Review-g293732-d27001828-Reviews-L_avenue_Brasserie_Nouvelle-Casablanca_Casablanca_Settat.html", "email": "contact@lavenue.ma", "mobile": "+212 6 11 30 90 19", "name": "L'Avenue", "outdoor_seating": "yes", "phone": "+212 5 22 39 00 39", "website": "https://lavenue.ma/", "website:menu": "http://lavenue.ma/wp-content/uploads/2023/11/Menu-LAvenue.pdf"}}, {"type": "node", "id": 12909627497, "lat": 33.6010073, "lon": -7.6550527, "tags": {"addr:housenumber": "23", "addr:street": "Boulevard Driss Slaoui \u0634\u0627\u0631\u0639 \u0625\u062f\u0631\u064a\u0633 \u0627\u0644\u0633\u0644\u0627\u0648\u064a", "amenity": "restaurant", "check_date": "2025-06-12", "contact:instagram": "https://www.instagram.com/cezannerestaurantcasa", "name": "C\u00e9zanne", "phone": "+212 5 22 39 20 30"}}, {"type": "node", "id": 12909627499, "lat": 33.6032711, "lon": -7.6570838, "tags": {"addr:housenumber": "90", "addr:street": "Boulevard Driss Slaoui \u0634\u0627\u0631\u0639 \u0625\u062f\u0631\u064a\u0633 \u0627\u0644\u0633\u0644\u0627\u0648\u064a", "air_conditioning": "yes", "amenity": "restaurant", "branch": "Casablanca", "check_date": "2025-06-12", "contact:facebook": "https://www.facebook.com/etcimehmetcasablanca/", "contact:instagram": "https://www.instagram.com/etcimehmet_casablanca", "contact:tripadvisor": "https://www.tripadvisor.com/Restaurant_Review-g293732-d24935699-Reviews-Etci_Mehmet_Steakhouse_Casablanca-Casablanca_Casablanca_Settat.html", "cuisine": "turkish;steak_house", "diet:halal": "yes", "diet:vegetarian": "yes", "email": "contact@etcimehmet.ma", "indoor_seating": "yes", "mobile": "+212 6 28 40 93 93", "name": "Et\u00e7i Mehmet", "opening_hours": "Mo-Su 08:00-00:00", "outdoor_seating": "yes", "payment:cash": "yes", "payment:credit_cards": "yes", "payment:debit_cards": "yes", "phone": "+212 5 22 94 94 03", "website": "https://etcimehmet.ma/", "website:menu": "https://menu.etcimehmet.ma/"}}, {"type": "node", "id": 12909652401, "lat": 33.5868365, "lon": -7.6474582, "tags": {"addr:housenumber": "23", "addr:street": "Boulevard Bir Anzarane \u0634\u0627\u0631\u0639 \u0628\u0626\u0631 \u0623\u0646\u0632\u0631\u0627\u0646", "amenity": "restaurant", "bar": "yes", "check_date": "2025-04-22", "email": "contact@labri.ma", "name": "L'Abri", "phone": "+212 5 22 94 94 01", "website": "https://labri.ma/"}}, {"type": "node", "id": 12909652402, "lat": 33.5874321, "lon": -7.6484003, "tags": {"addr:housenumber": "15", "addr:street": "Boulevard Abdelkrim El Khattabi \u0634\u0627\u0631\u0639 \u0639\u0628\u062f \u0627\u0644\u0643\u0631\u064a\u0645 \u0627\u0644\u062e\u0637\u0627\u0628\u064a", "amenity": "restaurant", "brand": "Chili's", "brand:wikidata": "Q1072948", "check_date": "2025-06-12", "cuisine": "tex-mex", "name": "Chili's", "official_name": "Chili's Grill & Bar", "phone": "+212 5 22 39 05 00"}}, {"type": "node", "id": 12909652406, "lat": 33.5680095, "lon": -7.6589079, "tags": {"addr:housenumber": "361", "addr:street": "Boulevard Sidi Abderrahmane \u0634\u0627\u0631\u0639 \u0633\u064a\u062f\u064a \u0639\u0628\u062f \u0627\u0644\u0631\u062d\u0645\u0627\u0646", "amenity": "restaurant", "branch": "CIL", "brand": "Yo Ti Tam", "check_date": "2025-11-24", "cuisine": "sushi", "name": "Yo Ti Tam"}}, {"type": "node", "id": 12909652408, "lat": 33.5686915, "lon": -7.660003, "tags": {"addr:street": "Boulevard Sidi Abderrahmane \u0634\u0627\u0631\u0639 \u0633\u064a\u062f\u064a \u0639\u0628\u062f \u0627\u0644\u0631\u062d\u0645\u0627\u0646", "amenity": "restaurant", "branch": "Villa CIL", "brand": "Little Mamma", "check_date": "2025-06-12", "cuisine": "italian", "name": "Little Mamma"}}, {"type": "node", "id": 12910521683, "lat": 33.5794073, "lon": -7.6505023, "tags": {"addr:housenumber": "20", "addr:street": "Rue Mamoun Mohamed \u0632\u0646\u0642\u0629 \u0645\u0627\u0645\u0648\u0646 \u0645\u062d\u0645\u062f", "amenity": "restaurant", "check_date": "2025-06-12", "cuisine": "chinese", "name": "Shanghai Garden"}}, {"type": "node", "id": 12990192201, "lat": 33.5966265, "lon": -7.6108546, "tags": {"addr:housenumber": "152", "addr:street": "Avenue des Forces Arm\u00e9es Royales \u0634\u0627\u0631\u0639 \u0627\u0644\u062c\u064a\u0634 \u0627\u0644\u0645\u0644\u0643\u064a", "amenity": "restaurant", "name": "Chez Zozo", "phone": "+212 6 26 64 32 59"}}, {"type": "node", "id": 13000273620, "lat": 33.5987593, "lon": -7.619166, "tags": {"air_conditioning": "yes", "amenity": "restaurant", "cuisine": "moroccan", "level": "0", "name": "Restaurant Bidoune Monafesse", "takeaway": "yes"}}, {"type": "node", "id": 13006104534, "lat": 33.6041396, "lon": -7.6216351, "tags": {"amenity": "restaurant", "cuisine": "moroccan", "name": "Dar Dada"}}, {"type": "node", "id": 13028467676, "lat": 33.5198779, "lon": -7.8388822, "tags": {"amenity": "restaurant", "name": "Chez L'Maestro"}}, {"type": "node", "id": 13046893850, "lat": 33.5465329, "lon": -7.5948079, "tags": {"addr:city": "Casablanca \u2d5c\u2d30\u2d37\u2d37\u2d30\u2d54\u2d5c \u2d5c\u2d53\u2d4e\u2d4d\u2d49\u2d4d\u2d5c \u0627\u0644\u062f\u0627\u0631 \u0627\u0644\u0628\u064a\u0636\u0627\u0621", "addr:housenumber": "205", "addr:street": "Boulevard El Khalil \u0634\u0627\u0631\u0639 \u0627\u0644\u062e\u0644\u064a\u0644", "amenity": "restaurant", "email": "espace1bistro@gmail.com", "name": "Espace Bistro", "opening_hours": "Mo-Su 06:00-23:00", "phone": "+212 664 03 44 33"}}, {"type": "node", "id": 13064677588, "lat": 33.5836773, "lon": -7.6399474, "tags": {"addr:housenumber": "113", "addr:street": "Rue Normandie \u0632\u0646\u0642\u0629 \u0646\u0648\u0631\u0645\u0627\u0646\u062f\u064a", "amenity": "restaurant", "cuisine": "lebanese", "name": "El Ghanouj"}}, {"type": "node", "id": 13082782986, "lat": 33.5899924, "lon": -7.64666, "tags": {"addr:housenumber": "55", "addr:street": "Boulevard Abdellatif Ben Kadour \u0634\u0627\u0631\u0639 \u0639\u0628\u062f \u0627\u0644\u0644\u0637\u064a\u0641 \u0628\u0646 \u0642\u062f\u0648\u0631", "amenity": "restaurant", "check_date": "2025-08-20", "name": "Le V\u00e9lodrome", "phone": "+212 5 22 23 45 46", "website:menu": "https://cdn0030.qrcodechimp.com/qr/PROD/67000b0bd25b0c76460f1496/fm/main_card_v3_digital.pdf"}}, {"type": "node", "id": 13093077990, "lat": 33.5772223, "lon": -7.6253019, "tags": {"amenity": "restaurant", "name": "Pomme de Pain"}}, {"type": "node", "id": 13093077995, "lat": 33.5782133, "lon": -7.6252155, "tags": {"addr:street": "Boulevard Abdelmoumen \u0634\u0627\u0631\u0639 \u0639\u0628\u062f \u0627\u0644\u0645\u0648\u0645\u0646", "amenity": "restaurant", "branch": "Abdelmoumen", "brand": "O Chef", "name": "O Chef"}}, {"type": "node", "id": 13093077998, "lat": 33.5785594, "lon": -7.6246821, "tags": {"amenity": "restaurant", "name": "Mademoiselle Sissi"}}, {"type": "node", "id": 13093122558, "lat": 33.5184385, "lon": -7.8503564, "tags": {"amenity": "restaurant", "name": "Bl\u00fbssom"}}, {"type": "node", "id": 13094431398, "lat": 33.5009746, "lon": -7.8572718, "tags": {"amenity": "restaurant", "name": "Snack Amine"}}, {"type": "node", "id": 13094805770, "lat": 33.5881493, "lon": -7.630843, "tags": {"amenity": "restaurant", "capacity": "80", "delivery": "no", "name": "Restaurant des professeurs"}}, {"type": "node", "id": 13094807886, "lat": 33.5879264, "lon": -7.6189312, "tags": {"amenity": "restaurant"}}, {"type": "node", "id": 13094807893, "lat": 33.606045, "lon": -7.5394376, "tags": {"amenity": "restaurant", "name": "Chez El Kaoun"}}, {"type": "node", "id": 13094820025, "lat": 33.5955958, "lon": -7.6755912, "tags": {"amenity": "restaurant", "cuisine": "international;regional", "description": "Restaurant et Night-Club", "name": "Balcon 33", "opening_hours": "Mo-Su 10:00-03:00"}}, {"type": "node", "id": 13094833032, "lat": 33.5659386, "lon": -7.6597137, "tags": {"amenity": "restaurant", "name": "La terrasse -1951- Maison Alexis"}}, {"type": "node", "id": 13094833920, "lat": 33.5881752, "lon": -7.6457967, "tags": {"amenity": "restaurant", "name": "Roots Coffee & More"}}, {"type": "node", "id": 13094834264, "lat": 33.5485187, "lon": -7.6511315, "tags": {"amenity": "restaurant", "name": "Buvette \u00c9tudiants"}}, {"type": "node", "id": 13094834265, "lat": 33.5476851, "lon": -7.6504471, "tags": {"amenity": "restaurant", "name": "Restaurant EHTP"}}, {"type": "node", "id": 13094834266, "lat": 33.5466783, "lon": -7.651652, "tags": {"amenity": "restaurant", "name": "Buvette"}}, {"type": "node", "id": 13094835653, "lat": 33.5286333, "lon": -7.6406825, "tags": {"access": "employees", "amenity": "restaurant", "building": "yes", "name": "Nearshore Casablanca"}}, {"type": "node", "id": 13094847290, "lat": 33.5701494, "lon": -7.6094921, "tags": {"addr:street": "Boulevard Lamartine", "amenity": "restaurant", "name": "Ayour"}}, {"type": "node", "id": 13094852004, "lat": 33.6177439, "lon": -7.5326442, "tags": {"addr:housenumber": "127", "addr:street": "All\u00e9e des Mimosas", "amenity": "restaurant", "name": "Mafy"}}, {"type": "node", "id": 13151708060, "lat": 33.6067272, "lon": -7.6285047, "tags": {"addr:city": "Casablanca \u2d5c\u2d30\u2d37\u2d37\u2d30\u2d54\u2d5c \u2d5c\u2d53\u2d4e\u2d4d\u2d49\u2d4d\u2d5c \u0627\u0644\u062f\u0627\u0631 \u0627\u0644\u0628\u064a\u0636\u0627\u0621", "addr:housenumber": "41", "addr:street": "Rue du Souss", "amenity": "restaurant", "name": "Agogo"}}, {"type": "node", "id": 13152825326, "lat": 33.5917504, "lon": -7.6272453, "tags": {"amenity": "restaurant", "branch": "Moulay Youssef", "brand": "Little Mamma", "cuisine": "italian", "name": "Little Mamma"}}, {"type": "node", "id": 13153350989, "lat": 33.6066332, "lon": -7.6192613, "tags": {"addr:city": "Casablanca \u2d5c\u2d30\u2d37\u2d37\u2d30\u2d54\u2d5c \u2d5c\u2d53\u2d4e\u2d4d\u2d49\u2d4d\u2d5c \u0627\u0644\u062f\u0627\u0631 \u0627\u0644\u0628\u064a\u0636\u0627\u0621", "amenity": "restaurant", "email": "anaszaki@moods.ma", "name": "Mood's", "website": "https://moods.ma", "website:menu": "https://moods.ma/menu"}}, {"type": "node", "id": 13201306343, "lat": 33.5885276, "lon": -7.6323582, "tags": {"amenity": "restaurant", "name": "L'entrec\u00f4te 212"}}, {"type": "node", "id": 13201348840, "lat": 33.5888214, "lon": -7.6335593, "tags": {"amenity": "restaurant", "name": "Amistad"}}, {"type": "node", "id": 13203328272, "lat": 33.5908823, "lon": -7.6310544, "tags": {"amenity": "restaurant", "cuisine": "asian", "name": "Nara"}}, {"type": "node", "id": 13203337356, "lat": 33.5896971, "lon": -7.6324564, "tags": {"amenity": "restaurant", "name": "Gare aux gorilles"}}, {"type": "node", "id": 13203338047, "lat": 33.5900664, "lon": -7.6318063, "tags": {"amenity": "restaurant", "cuisine": "sushi", "name": "Sushi Club"}}, {"type": "node", "id": 13203338766, "lat": 33.5894857, "lon": -7.6326889, "tags": {"amenity": "restaurant", "name": "Le Courtois"}}, {"type": "node", "id": 13203340444, "lat": 33.589856, "lon": -7.6322896, "tags": {"amenity": "restaurant", "cuisine": "french", "name": "Le petit bouillon"}}, {"type": "node", "id": 13301709651, "lat": 33.5933065, "lon": -7.6230832, "tags": {"amenity": "restaurant", "name": "Misti Roof Top", "website": "https://www.instagram.com/mistirooftop/"}}, {"type": "node", "id": 13360621109, "lat": 33.5954875, "lon": -7.6395038, "tags": {"amenity": "restaurant", "cuisine": "palestinian", "name": "Farchouhat \u0641\u0631\u0634\u0648\u062d\u0629", "name:ar": "\u0641\u0631\u0634\u0648\u062d\u0629", "name:fr": "Farchouhat"}}, {"type": "node", "id": 13360659540, "lat": 33.5993158, "lon": -7.6467935, "tags": {"addr:street": "Avenue Tan Tan \u0634\u0627\u0631\u0639 \u0637\u0627\u0646\u0637\u0627\u0646", "amenity": "restaurant", "cuisine": "yemeni", "name": "Hadramaut \u062d\u0636\u0631\u0645\u0648\u062a", "name:ar": "\u062d\u0636\u0631\u0645\u0648\u062a", "name:fr": "Hadramaut"}}, {"type": "node", "id": 13485456501, "lat": 33.5984714, "lon": -7.6388244, "tags": {"amenity": "restaurant"}}, {"type": "node", "id": 13569901951, "lat": 33.6017196, "lon": -7.6217648, "tags": {"amenity": "restaurant", "name": "Dar Abi"}}, {"type": "node", "id": 13607593157, "lat": 33.5880198, "lon": -7.6276291, "tags": {"addr:city": "Casablanca", "addr:country": "MO", "addr:postcode": "20320", "addr:street": "Angle Boulevard Brahim Roudani & Rue Abou Al Fa\u00efd Al Masri", "amenity": "restaurant", "cuisine": "international", "name": "Braise", "opening_hours": "12:00-23:00"}}, {"type": "node", "id": 13745594965, "lat": 33.5779705, "lon": -7.7047021, "tags": {"amenity": "restaurant", "name": "Noah"}}, {"type": "node", "id": 13786923502, "lat": 33.6799907, "lon": -7.4023332, "tags": {"amenity": "restaurant", "name": "TACOS ONLY"}}, {"type": "node", "id": 13786923503, "lat": 33.458276, "lon": -7.651193, "tags": {"amenity": "restaurant", "name": "Coeur de Bouskoura"}}, {"type": "node", "id": 13786937302, "lat": 33.460753, "lon": -7.645076, "tags": {"amenity": "restaurant", "name": "Venezia Ice"}}, {"type": "node", "id": 13786938101, "lat": 33.462888, "lon": -7.646981, "tags": {"amenity": "restaurant", "name": "Moustache"}}, {"type": "node", "id": 13787491302, "lat": 33.633814, "lon": -7.453726, "tags": {"amenity": "restaurant", "name": "Restaurant et Caf\u00e9 Station Afriquia"}}, {"type": "node", "id": 13787491902, "lat": 33.633836, "lon": -7.45581, "tags": {"amenity": "restaurant", "name": "Fruits de Mer Majid"}}, {"type": "node", "id": 13853462809, "lat": 33.5855895, "lon": -7.6355801, "tags": {"amenity": "restaurant", "name": "Mon Fils"}}, {"type": "node", "id": 13853481757, "lat": 33.5822476, "lon": -7.6386505, "tags": {"amenity": "restaurant", "name": "\u00d4 Chef"}}, {"type": "node", "id": 13853481762, "lat": 33.5834099, "lon": -7.6373995, "tags": {"amenity": "restaurant", "cuisine": "pizza", "name": "Pizza di Papi"}}, {"type": "node", "id": 13858926013, "lat": 33.5875046, "lon": -7.6334124, "tags": {"amenity": "restaurant", "cuisine": "pizza", "name": "Trattoria del Papa"}}, {"type": "node", "id": 13861018496, "lat": 33.5877758, "lon": -7.6401671, "tags": {"amenity": "restaurant", "cuisine": "italian", "name": "Cesarino"}}, {"type": "node", "id": 13905899391, "lat": 33.5827587, "lon": -7.6412936, "tags": {"amenity": "restaurant", "cuisine": "italian", "name": "Little Mamma"}},