{"version": 0.6, "generator": "Overpass API 0.7.62.11 87bfad18", "osm3s": {"timestamp_osm_base": "2026-05-22T03:27:34Z", "copyright": "The data included in this document is from www.openstreetmap.org. The data is made available under ODbL."}, "elements": [{"type": "node", "id": 29952583, "lat": 33.3685966, "lon": -7.5425948, "tags": {"addr:street": "N9", "amenity": "fuel", "brand": "Afriquia", "operator": "Afriquia", "source": "Kaart Ground Survey 2018"}}, {"type": "node", "id": 1464276480, "lat": 33.593057, "lon": -7.598525, "tags": {"amenity": "fuel", "brand": "Shell", "brand:ar": "\u0634\u0644", "brand:es": "Shell", "brand:fr": "Shell", "brand:wikidata": "Q110716465", "fuel:GTL_diesel": "no", "fuel:HGV_diesel": "no", "fuel:biodiesel": "no", "fuel:biogas": "no", "fuel:cng": "no", "fuel:diesel": "yes", "fuel:electricity": "no", "fuel:lpg": "no", "name": "Shell \u0634\u0644", "name:ar": "\u0634\u0644", "name:de": "Shell", "name:en": "Shell", "name:es": "Shell", "name:fr": "Shell", "operator": "Shell", "operator:ar": "\u0634\u0644", "operator:es": "Shell", "operator:fr": "Shell", "operator:wikidata": "Q154950", "operator:wikipedia": "fr:Shell (entreprise)"}}, {"type": "node", "id": 1464579523, "lat": 33.5892298, "lon": -7.5965419, "tags": {"amenity": "fuel", "brand": "Shell", "brand:ar": "\u0634\u0644", "brand:es": "Shell", "brand:fr": "Shell", "brand:wikidata": "Q110716465", "name": "Shell \u0634\u0644", "name:ar": "\u0634\u0644", "name:de": "Shell", "name:en": "Shell", "name:es": "Shell", "name:fr": "Shell", "operator": "Shell", "operator:ar": "\u0634\u0644", "operator:es": "Shell", "operator:fr": "Shell", "operator:wikidata": "Q154950", "operator:wikipedia": "fr:Shell (entreprise)"}}, {"type": "node", "id": 1464579563, "lat": 33.5880813, "lon": -7.6037302, "tags": {"addr:city": "Casablanca", "addr:street": "Rue des Quinconces", "amenity": "fuel", "brand": "Oilibya", "brand:wikidata": "Q7081491", "brand:wikipedia": "en:Oilibya", "name": "Oilibya", "name:ar": "\u0623\u0648\u064a\u0644\u064a\u0628\u064a\u0627", "operator": "Oilibya"}}, {"type": "node", "id": 1464579595, "lat": 33.5888428, "lon": -7.5973879, "tags": {"addr:street": "Rue Mohammed ben radi slaoui", "amenity": "fuel", "brand": "Oilibya", "brand:wikidata": "Q7081491", "brand:wikipedia": "en:Oilibya", "name": "Oilibya", "name:ar": "\u0623\u0648\u064a\u0644\u064a\u0628\u064a\u0627", "name:en": "Oilibya", "operator": "Oilibya"}}, {"type": "node", "id": 1547395734, "lat": 33.777518, "lon": -7.2334297, "tags": {"amenity": "fuel", "brand": "Afriquia", "fuel:diesel": "yes", "fuel:octane_95": "yes", "name": "Aire de service Bouznika", "operator": "Afriquia"}}, {"type": "node", "id": 1547395888, "lat": 33.7795887, "lon": -7.2327215, "tags": {"amenity": "fuel", "brand": "SHELL", "name": "Aire de service Bouznika", "operator": "SHELL"}}, {"type": "node", "id": 1746921480, "lat": 33.5974373, "lon": -7.6290061, "tags": {"amenity": "fuel", "brand": "TotalEnergies", "brand:wikidata": "Q154037", "name": "TotalEnergies"}}, {"type": "node", "id": 1746923047, "lat": 33.59609, "lon": -7.6309387, "tags": {"amenity": "fuel", "compressed_air": "yes", "name": "Somap"}}, {"type": "node", "id": 2135428243, "lat": 33.4391387, "lon": -7.5209454, "tags": {"amenity": "fuel"}}, {"type": "node", "id": 2135428343, "lat": 33.4575282, "lon": -7.5218118, "tags": {"addr:street": "R315", "amenity": "fuel", "brand": "Afriquia", "operator": "Afriquia", "source": "Kaart Ground Survey 2018"}}, {"type": "node", "id": 2146499640, "lat": 33.5212361, "lon": -7.5574575, "tags": {"amenity": "fuel", "brand": "Afriquia", "brand:wikidata": "Q2829178", "name": "Afriquia"}}, {"type": "node", "id": 2428391666, "lat": 33.5825408, "lon": -7.6021553, "tags": {"addr:city": "Casablanca", "addr:street": "Boulevard Moulay Idriss I", "amenity": "fuel", "brand": "TotalEnergies", "brand:wikidata": "Q154037", "name": "TotalEnergies"}}, {"type": "node", "id": 2428391681, "lat": 33.5827681, "lon": -7.6039363, "tags": {"amenity": "fuel"}}, {"type": "node", "id": 2428391692, "lat": 33.5835667, "lon": -7.5981966, "tags": {"amenity": "fuel", "brand": "TotalEnergies", "brand:wikidata": "Q154037", "brand:wikipedia": "fr:TotalEnergies", "name": "TotalEnergies"}}, {"type": "node", "id": 2428391732, "lat": 33.5869146, "lon": -7.5949272, "tags": {"amenity": "fuel"}}, {"type": "node", "id": 2428391734, "lat": 33.5876079, "lon": -7.598817, "tags": {"addr:street": "Boulevard Youssef Ben Tachfine", "amenity": "fuel", "brand": "\u0634\u0644", "brand:ar": "\u0634\u0644", "brand:en": "Shell", "brand:es": "Shell", "brand:fr": "Shell", "brand:wikidata": "Q110716465", "name": "Shell \u0634\u0644", "name:ar": "\u0634\u0644", "name:de": "Shell", "name:en": "Shell", "name:es": "Shell", "name:fr": "Shell", "operator": "Shell", "operator:ar": "\u0634\u0644", "operator:es": "Shell", "operator:fr": "Shell", "operator:wikidata": "Q154950", "operator:wikipedia": "fr:Shell (entreprise)"}}, {"type": "node", "id": 2428391736, "lat": 33.5880346, "lon": -7.602086, "tags": {"amenity": "fuel"}}, {"type": "node", "id": 2428391774, "lat": 33.5948903, "lon": -7.6037693, "tags": {"addr:city": "Casablanca \u2d5c\u2d30\u2d37\u2d37\u2d30\u2d54\u2d5c \u2d5c\u2d53\u2d4e\u2d4d\u2d49\u2d4d\u2d5c \u0627\u0644\u062f\u0627\u0631 \u0627\u0644\u0628\u064a\u0636\u0627\u0621", "addr:street": "Boulevard Al Moqawama", "amenity": "fuel", "brand": "Oilibya", "brand:wikidata": "Q7081491", "brand:wikipedia": "en:Oilibya", "name": "Oilibya", "name:ar": "\u0623\u0648\u064a\u0644\u064a\u0628\u064a\u0627", "name:en": "Oilibya", "operator": "Oilibya"}}, {"type": "node", "id": 2428391775, "lat": 33.5951462, "lon": -7.5944075, "tags": {"addr:street": "Boulevard Emile Zola", "amenity": "fuel", "brand": "Total", "brand:wikidata": "Q154037", "name": "station total alamal"}}, {"type": "node", "id": 2428391777, "lat": 33.5963947, "lon": -7.5986993, "tags": {"addr:street": "Avenue Pasteur", "amenity": "fuel", "brand": "\u0634\u0644", "brand:ar": "\u0634\u0644", "brand:en": "Shell", "brand:wikidata": "Q110716465", "name": "\u0634\u0644", "name:ar": "\u0634\u0644", "name:en": "Shell", "source": "Kaart Ground Survey 2018"}}, {"type": "node", "id": 2428404592, "lat": 33.3796765, "lon": -7.5665886, "tags": {"amenity": "fuel"}}, {"type": "node", "id": 2428404619, "lat": 33.5083207, "lon": -7.8327518, "tags": {"amenity": "fuel"}}, {"type": "node", "id": 2428404622, "lat": 33.5284272, "lon": -7.6797646, "tags": {"amenity": "fuel"}}, {"type": "node", "id": 2428404642, "lat": 33.5470132, "lon": -7.7442477, "tags": {"amenity": "fuel"}}, {"type": "node", "id": 2508629561, "lat": 33.5992711, "lon": -7.6352132, "tags": {"amenity": "fuel", "brand": "TotalEnergies", "brand:wikidata": "Q154037", "name": "TotalEnergies"}}, {"type": "node", "id": 2553587529, "lat": 33.2370274, "lon": -7.5889881, "tags": {"amenity": "fuel"}}, {"type": "node", "id": 2553587819, "lat": 33.2445697, "lon": -7.5860645, "tags": {"amenity": "fuel"}}, {"type": "node", "id": 2880345530, "lat": 33.5076307, "lon": -7.6313093, "tags": {"amenity": "fuel", "brand": "Somap", "name": "Somap Bouskoura", "operator": "Somap"}}, {"type": "node", "id": 2951687867, "lat": 33.5460644, "lon": -7.5840928, "tags": {"addr:street": "Boulevard Mohammed VI", "amenity": "fuel", "brand": "Oilibya", "brand:wikidata": "Q7081491", "brand:wikipedia": "en:Oilibya", "source": "Kaart Ground Survey 2018"}}, {"type": "node", "id": 2951687949, "lat": 33.5454093, "lon": -7.5835536, "tags": {"addr:street": "Boulevard Mohammed VI", "amenity": "fuel", "brand": "Shell", "source": "Kaart Ground Survey 2018"}}, {"type": "node", "id": 2951688143, "lat": 33.5627036, "lon": -7.5934349, "tags": {"amenity": "fuel", "compressed_air": "yes", "name": "Afriquia", "name:ar": "\u0627\u0641\u0631\u064a\u0642\u064a\u0627", "name:fr": "Afriquia"}}, {"type": "node", "id": 2951711842, "lat": 33.572145, "lon": -7.5977452, "tags": {"amenity": "fuel", "compressed_air": "yes", "name": "Afriquia", "name:ar": "\u0623\u0641\u0631\u064a\u0642\u064a\u0627", "name:fr": "Afriquia"}}, {"type": "node", "id": 2960452000, "lat": 33.3889948, "lon": -7.5370177, "tags": {"amenity": "fuel", "brand": "TotalEnergies", "brand:wikidata": "Q154037", "name": "TotalEnergies"}}, {"type": "node", "id": 3049352057, "lat": 33.5885145, "lon": -7.4987502, "tags": {"amenity": "fuel", "name": "\u0645\u062d\u0637\u0629 \u0627\u0641\u0631\u064a\u0642\u064a\u0627", "name:ar": "\u0645\u062d\u0637\u0629 \u0627\u0641\u0631\u064a\u0642\u064a\u0627", "name:fr": "Station Afriquia"}}, {"type": "node", "id": 3061622986, "lat": 33.6856918, "lon": -7.3365093, "tags": {"amenity": "fuel"}}, {"type": "node", "id": 3061623324, "lat": 33.8591583, "lon": -7.0233298, "tags": {"amenity": "fuel"}}, {"type": "node", "id": 3061623435, "lat": 33.8613113, "lon": -7.0181081, "tags": {"amenity": "fuel"}}, {"type": "node", "id": 3072481988, "lat": 33.2862698, "lon": -7.5923349, "tags": {"amenity": "fuel"}}, {"type": "node", "id": 3072482010, "lat": 33.2894289, "lon": -7.5756435, "tags": {"addr:street": "N9", "amenity": "fuel", "source": "Kaart Ground Survey 2018"}}, {"type": "node", "id": 3118803983, "lat": 33.5934905, "lon": -7.5821275, "tags": {"amenity": "fuel", "brand": "Winxo", "brand:wikidata": "Q88389320", "name": "Winxo"}}, {"type": "node", "id": 3227963331, "lat": 33.6016747, "lon": -7.6331732, "tags": {"amenity": "fuel", "brand": "\u0634\u0644", "brand:ar": "\u0634\u0644", "brand:en": "Shell", "brand:wikidata": "Q110716465", "fuel:1_25": "yes", "fuel:1_50": "yes", "fuel:diesel": "yes", "name": "Station d'essence Shell", "name:ar": "\u0634\u0644", "name:en": "Shell", "opening_hours": "24/7", "shop": "no"}}, {"type": "node", "id": 3330956949, "lat": 33.5101583, "lon": -7.6081449, "tags": {"amenity": "fuel"}}, {"type": "node", "id": 3415331199, "lat": 33.6099955, "lon": -7.1328091, "tags": {"amenity": "fuel"}}, {"type": "node", "id": 3450829685, "lat": 33.4053584, "lon": -7.5342901, "tags": {"addr:city": "Deroua \u0627\u0644\u062f\u0648\u0631\u0629", "amenity": "fuel", "brand": "Petromin Oils", "name": "Station Petromine", "source": "Kaart Ground Survey 2018"}}, {"type": "node", "id": 3528440006, "lat": 33.8212012, "lon": -7.1254595, "tags": {"amenity": "fuel"}}, {"type": "node", "id": 3533488689, "lat": 33.4781674, "lon": -7.7561438, "tags": {"amenity": "fuel"}}, {"type": "node", "id": 3555184386, "lat": 33.4121085, "lon": -7.8762214, "tags": {"amenity": "fuel"}}, {"type": "node", "id": 3555184657, "lat": 33.4114995, "lon": -7.8808509, "tags": {"amenity": "fuel"}}, {"type": "node", "id": 3654959055, "lat": 33.3057453, "lon": -7.5726115, "tags": {"amenity": "fuel"}}, {"type": "node", "id": 3665631183, "lat": 33.5947842, "lon": -7.5873788, "tags": {"amenity": "fuel", "name": "La Pompe Diesel (77)"}}, {"type": "node", "id": 3905870448, "lat": 33.6694646, "lon": -7.3535509, "tags": {"amenity": "fuel", "name": "Bacha Guennoun \u0627\u0644\u0628\u0627\u0634\u0627 \u0643\u0646\u0648\u0646", "name:ar": "\u0627\u0644\u0628\u0627\u0634\u0627 \u0643\u0646\u0648\u0646", "name:en": "Bacha Guennoun", "name:fr": "Bacha Guennoun"}}, {"type": "node", "id": 3907390380, "lat": 33.2244605, "lon": -7.5132947, "tags": {"amenity": "fuel"}}, {"type": "node", "id": 3907525349, "lat": 33.3717302, "lon": -7.4970274, "tags": {"amenity": "fuel"}}, {"type": "node", "id": 3907530710, "lat": 33.3315413, "lon": -7.4593719, "tags": {"amenity": "fuel", "brand": "Afriquia \u0623\u0641\u0631\u064a\u0642\u064a\u0627", "brand:ar": "\u0623\u0641\u0631\u064a\u0642\u064a\u0627", "brand:en": "Afriquia", "brand:wikidata": "Q56300032", "name": "Afriquia \u0623\u0641\u0631\u064a\u0642\u064a\u0627", "name:ar": "\u0623\u0641\u0631\u064a\u0642\u064a\u0627", "name:en": "Afriquia", "operator": "Afriquia"}}, {"type": "node", "id": 3907531594, "lat": 33.344703, "lon": -7.4712466, "tags": {"amenity": "fuel"}}, {"type": "node", "id": 3908742807, "lat": 33.2382148, "lon": -7.538804, "tags": {"amenity": "fuel"}}, {"type": "node", "id": 3910038995, "lat": 33.7065821, "lon": -7.2968998, "tags": {"amenity": "fuel"}}, {"type": "node", "id": 3910039139, "lat": 33.7034408, "lon": -7.3059324, "tags": {"amenity": "fuel"}}, {"type": "node", "id": 3927860027, "lat": 33.3642511, "lon": -8.0136617, "tags": {"amenity": "fuel"}}, {"type": "node", "id": 3940074591, "lat": 33.7734362, "lon": -7.1917826, "tags": {"amenity": "fuel", "name": "station afriquia"}}, {"type": "node", "id": 3944755557, "lat": 33.6901234, "lon": -7.3916242, "tags": {"amenity": "fuel", "name": "Station Service"}}, {"type": "node", "id": 3948759289, "lat": 33.4869556, "lon": -7.6735251, "tags": {"amenity": "fuel"}}, {"type": "node", "id": 3948759290, "lat": 33.4850515, "lon": -7.6711922, "tags": {"amenity": "fuel"}}, {"type": "node", "id": 3951078391, "lat": 33.4706834, "lon": -7.5136215, "tags": {"amenity": "fuel"}}, {"type": "node", "id": 3955686019, "lat": 33.5617436, "lon": -7.3757883, "tags": {"amenity": "fuel"}}, {"type": "node", "id": 3955686599, "lat": 33.507225, "lon": -7.4302449, "tags": {"amenity": "fuel"}}, {"type": "node", "id": 3955817387, "lat": 33.7266196, "lon": -7.3340704, "tags": {"amenity": "fuel", "brand": "\u0623\u0641\u0631\u064a\u0642\u064a\u0627", "brand:ar": "\u0623\u0641\u0631\u064a\u0642\u064a\u0627", "brand:wikidata": "Q2829178", "brand:wikipedia": "ar:\u0645\u062c\u0645\u0648\u0639\u0629 \u0623\u0643\u0648\u0627", "brand:wikipedia:ar": "\u0645\u062c\u0645\u0648\u0639\u0629 \u0623\u0643\u0648\u0627", "name": "Afriquia \u0623\u0641\u0631\u064a\u0642\u064a\u0627", "name:ar": "\u0623\u0641\u0631\u064a\u0642\u064a\u0627", "name:en": "Afriquia", "name:fr": "Afriquia", "operator": "\u0645\u062c\u0645\u0648\u0639\u0629 \u0623\u0643\u0648\u0627", "operator:ar": "\u0645\u062c\u0645\u0648\u0639\u0629 \u0623\u0643\u0648\u0627", "operator:wikidata": "Q2829178", "operator:wikipedia": "ar:\u0645\u062c\u0645\u0648\u0639\u0629 \u0623\u0643\u0648\u0627", "operator:wikipedia:ar": "\u0645\u062c\u0645\u0648\u0639\u0629 \u0623\u0643\u0648\u0627"}}, {"type": "node", "id": 3956097371, "lat": 33.2612793, "lon": -7.6129468, "tags": {"amenity": "fuel"}}, {"type": "node", "id": 3965207729, "lat": 33.8068278, "lon": -7.1277794, "tags": {"amenity": "fuel"}}, {"type": "node", "id": 3976720781, "lat": 33.5482425, "lon": -7.5732862, "tags": {"addr:city": "Casablanca", "addr:street": "Boulevard Commandant Driss Al Harti", "amenity": "fuel", "brand": "TotalEnergies", "brand:wikidata": "Q154037", "name": "TotalEnergies"}}, {"type": "node", "id": 4000899101, "lat": 33.5371836, "lon": -7.6425542, "tags": {"amenity": "fuel", "brand": "E.Leclerc", "brand:wikidata": "Q1273376", "brand:wikipedia:ar": "\u0645\u062c\u0645\u0648\u0639\u0629 \u0623\u0643\u0648\u0627", "name": "Station Service E.Leclerc", "operator": "\u0645\u062c\u0645\u0648\u0639\u0629 \u0623\u0643\u0648\u0627", "operator:ar": "\u0645\u062c\u0645\u0648\u0639\u0629 \u0623\u0643\u0648\u0627", "operator:wikidata": "Q2829178", "operator:wikipedia": "ar:\u0645\u062c\u0645\u0648\u0639\u0629 \u0623\u0643\u0648\u0627", "operator:wikipedia:ar": "\u0645\u062c\u0645\u0648\u0639\u0629 \u0623\u0643\u0648\u0627"}}, {"type": "node", "id": 4188238480, "lat": 33.574859, "lon": -7.6101748, "tags": {"amenity": "fuel", "brand": "TotalEnergies", "brand:wikidata": "Q154037", "brand:wikipedia": "fr:TotalEnergies", "name": "TotalEnergies"}}, {"type": "node", "id": 4203236826, "lat": 33.5538978, "lon": -7.5628193, "tags": {"amenity": "fuel"}}, {"type": "node", "id": 4203236981, "lat": 33.5675533, "lon": -7.5832292, "tags": {"amenity": "fuel"}}, {"type": "node", "id": 4213195816, "lat": 33.5317175, "lon": -7.6746083, "tags": {"amenity": "fuel"}}, {"type": "node", "id": 4215514571, "lat": 33.4996267, "lon": -7.5419767, "tags": {"amenity": "fuel", "brand": "Oilibya", "brand:wikidata": "Q7081491", "name": "Oilibya", "name:ar": "\u0623\u0648\u064a\u0644\u064a\u0628\u064a\u0627"}}, {"type": "node", "id": 4215515946, "lat": 33.5118639, "lon": -7.5480767, "tags": {"amenity": "fuel", "brand": "Ziz", "brand:wikidata": "Q88393228", "name": "Ziz"}}, {"type": "node", "id": 4226935554, "lat": 33.5447978, "lon": -7.5830327, "tags": {"addr:street": "Boulevard Mohammed VI", "amenity": "fuel", "brand": "Oilibya", "brand:wikidata": "Q7081491", "brand:wikipedia": "en:Oilibya", "source": "Kaart Ground Survey 2018"}}, {"type": "node", "id": 4335454889, "lat": 33.6039884, "lon": -7.492582, "tags": {"addr:postcode": "20000", "addr:street": "Boulevard Mbarek Ben Boubker Hamadi", "amenity": "fuel", "name": "station Afriquia al azhar", "operator": "Afriquia"}}, {"type": "node", "id": 4439105994, "lat": 33.4089455, "lon": -7.5392691, "tags": {"addr:street": "P3038", "amenity": "fuel", "brand": "Petromin Oils", "operator": "Petromin Oils", "source": "Kaart Ground Survey 2018"}}, {"type": "node", "id": 4542087329, "lat": 33.4740603, "lon": -7.9434182, "tags": {"amenity": "fuel"}}, {"type": "node", "id": 4561971606, "lat": 33.8453042, "lon": -7.0465842, "tags": {"amenity": "fuel"}}, {"type": "node", "id": 4585830303, "lat": 33.6865832, "lon": -7.4014461, "tags": {"addr:street": "Boulevard Hassan II", "amenity": "fuel", "brand": "\u0628\u062a\u0631\u0648\u0645", "brand:ar": "\u0628\u062a\u0631\u0648\u0645", "brand:wikidata": "Q1755034", "brand:wikipedia": "ar:\u0628\u062a\u0631\u0648\u0645", "name": "Petrom \u0628\u062a\u0631\u0648\u0645", "name:ar": "\u0628\u062a\u0631\u0648\u0645", "name:en": "Petrom", "name:fr": "Petrom", "operator": "\u0628\u062a\u0631\u0648\u0645", "operator:ar": "\u0628\u062a\u0631\u0648\u0645", "operator:wikidata": "Q1755034"}}, {"type": "node", "id": 4610458592, "lat": 33.2621547, "lon": -7.6074846, "tags": {"amenity": "fuel"}}, {"type": "node", "id": 4617180987, "lat": 33.5282171, "lon": -7.4941711, "tags": {"amenity": "fuel"}}, {"type": "node", "id": 4650112600, "lat": 33.5047862, "lon": -7.7440845, "tags": {"amenity": "fuel"}}, {"type": "node", "id": 4838812132, "lat": 33.3770654, "lon": -7.5408087, "tags": {"addr:city": "Deroua \u2d37\u2d54\u2d61\u2d30 \u0627\u0644\u062f\u0648\u0631\u0629", "addr:street": "Route De Casa", "amenity": "fuel", "name": "OiLibya", "phone": "+212 660 915 758"}}, {"type": "node", "id": 4846273522, "lat": 33.6790818, "lon": -7.4163724, "tags": {"amenity": "fuel", "brand": "Winxo", "brand:wikidata": "Q88389320", "name": "Winxo", "operator": "Samir"}}, {"type": "node", "id": 5057736151, "lat": 33.5001516, "lon": -7.8579861, "tags": {"amenity": "fuel"}}, {"type": "node", "id": 5081987821, "lat": 33.5380991, "lon": -7.7176864, "tags": {"amenity": "fuel", "brand": "Afriquia \u0623\u0641\u0631\u064a\u0642\u064a\u0627", "brand:ar": "\u0623\u0641\u0631\u064a\u0642\u064a\u0627", "brand:wikidata": "Q56300032", "brand:wikipedia": "ar:\u0645\u062c\u0645\u0648\u0639\u0629 \u0623\u0643\u0648\u0627", "brand:wikipedia:ar": "\u0645\u062c\u0645\u0648\u0639\u0629 \u0623\u0643\u0648\u0627", "name": "Afriquia \u0623\u0641\u0631\u064a\u0642\u064a\u0627", "name:ar": "\u0623\u0641\u0631\u064a\u0642\u064a\u0627", "name:en": "Afriquia", "name:fr": "Afriquia", "operator": "\u0645\u062c\u0645\u0648\u0639\u0629 \u0623\u0643\u0648\u0627", "operator:ar": "\u0645\u062c\u0645\u0648\u0639\u0629 \u0623\u0643\u0648\u0627", "operator:wikidata": "Q2829178", "operator:wikipedia": "ar:\u0645\u062c\u0645\u0648\u0639\u0629 \u0623\u0643\u0648\u0627", "operator:wikipedia:ar": "\u0645\u062c\u0645\u0648\u0639\u0629 \u0623\u0643\u0648\u0627"}}, {"type": "node", "id": 5195438721, "lat": 33.6782002, "lon": -7.3876279, "tags": {"addr:street": "Boulevard de Riyad", "amenity": "fuel", "name": "Gbagbo services belbachir"}}, {"type": "node", "id": 5291826284, "lat": 33.578109, "lon": -7.5528897, "tags": {"amenity": "fuel"}}, {"type": "node", "id": 5291827951, "lat": 33.5738358, "lon": -7.5541675, "tags": {"amenity": "fuel", "brand": "Shell", "brand:ar": "\u0634\u0644", "brand:de": "Shell", "brand:es": "Shell", "brand:fr": "Shell", "brand:wikidata": "Q110716465", "compressed_air": "yes", "name": "Shell", "name:ar": "\u0634\u0644", "name:de": "Shell", "name:es": "Shell", "name:fr": "Shell", "operator": "Shell", "operator:ar": "\u0634\u0644", "operator:es": "Shell", "operator:fr": "Shell", "operator:wikidata": "Q154950", "operator:wikipedia": "fr:Shell (entreprise)"}}, {"type": "node", "id": 5542854912, "lat": 33.5402019, "lon": -7.6003164, "tags": {"addr:street": "Avenue 2 Mars", "amenity": "fuel", "source": "Kaart Ground Survey 2018"}}, {"type": "node", "id": 5551251276, "lat": 33.5097981, "lon": -7.6307589, "tags": {"amenity": "fuel", "brand": "Petrom", "brand:ar": "\u0628\u062a\u0631\u0648\u0645", "brand:wikidata": "Q110028558", "brand:wikipedia": "ar:\u0628\u062a\u0631\u0648\u0645", "name": "Petrom \u0628\u062a\u0631\u0648\u0645", "name:ar": "\u0628\u062a\u0631\u0648\u0645", "name:en": "Petrom", "name:fr": "Petrom", "operator": "\u0628\u062a\u0631\u0648\u0645", "operator:ar": "\u0628\u062a\u0631\u0648\u0645", "operator:wikidata": "Q1755034"}}, {"type": "node", "id": 5581600705, "lat": 33.5675851, "lon": -7.5823165, "tags": {"addr:street": "Rue 17 \u0632\u0646\u0642\u0629", "addr:street:ar": "17 \u0632\u0646\u0642\u0629", "addr:street:es": "Calle 17", "amenity": "fuel", "brand": "Shell", "brand:ar": "\u0634\u0644", "brand:es": "Shell", "brand:fr": "Shell", "brand:wikidata": "Q110716465", "name": "Shell \u0634\u0644", "name:ar": "\u0634\u0644", "name:de": "Shell", "name:en": "Shell", "name:es": "Shell", "name:fr": "Shell", "operator": "Shell", "operator:ar": "\u0634\u0644", "operator:es": "Shell", "operator:fr": "Shell", "operator:wikidata": "Q154950", "operator:wikipedia": "fr:Shell (entreprise)"}}, {"type": "node", "id": 5625470387, "lat": 33.5771499, "lon": -7.5878003, "tags": {"addr:street": "Avenue Abdelkrim Al-Khatib", "amenity": "fuel", "brand": "Shell", "operator": "Shell", "source": "Kaart Ground Survey 2018"}}, {"type": "node", "id": 5627642655, "lat": 33.5897715, "lon": -7.5965725, "tags": {"addr:street": "Rue Mohammed Ben Radi Slaoui", "amenity": "fuel", "brand": "Oilibya", "brand:wikidata": "Q7081491", "brand:wikipedia": "en:Oilibya", "building": "roof", "name": "Oilibya", "name:ar": "\u0623\u0648\u064a\u0644\u064a\u0628\u064a\u0627", "operator": "Oilibya", "source": "Kaart Ground Survey 2018"}}, {"type": "node", "id": 5633937655, "lat": 33.5878069, "lon": -7.6159032, "tags": {"addr:street": "Boulevard Rahal El Meskini", "amenity": "fuel", "brand": "Winxo", "brand:wikidata": "Q88389320", "name": "Winxo", "source": "Kaart Ground Survey 2018"}}, {"type": "node", "id": 5635622767, "lat": 33.58582, "lon": -7.5843591, "tags": {"addr:street": "Boulevard Youssef Ibn Tachfine", "amenity": "fuel", "brand": "Shell", "brand:ar": "\u0634\u0644", "brand:es": "Shell", "brand:fr": "Shell", "brand:wikidata": "Q110716465", "name": "Shell \u0634\u0644", "name:ar": "\u0634\u0644", "name:de": "Shell", "name:en": "Shell", "name:es": "Shell", "name:fr": "Shell", "operator": "Shell", "operator:ar": "\u0634\u0644", "operator:es": "Shell", "operator:fr": "Shell", "operator:wikidata": "Q154950", "operator:wikipedia": "fr:Shell (entreprise)"}}, {"type": "node", "id": 5638413066, "lat": 33.7014678, "lon": -7.3773727, "tags": {"addr:street": "Boulevard Hassan II", "amenity": "fuel", "brand": "\u0634\u0644", "brand:ar": "\u0634\u0644", "brand:en": "Shell", "brand:es": "Shell", "brand:fr": "Shell", "brand:wikidata": "Q110716465", "name": "Shell \u0634\u0644", "name:ar": "\u0634\u0644", "name:de": "Shell", "name:en": "Shell", "name:es": "Shell", "name:fr": "Shell", "operator": "Shell", "operator:ar": "\u0634\u0644", "operator:es": "Shell", "operator:fr": "Shell", "operator:wikidata": "Q154950", "operator:wikipedia": "fr:Shell (entreprise)"}}, {"type": "node", "id": 5638416375, "lat": 33.5716067, "lon": -7.5996778, "tags": {"addr:street": "Boulevard el Fida", "amenity": "fuel", "name": "Winxo", "source": "Kaart Ground Survey 2018"}}, {"type": "node", "id": 5640585943, "lat": 33.57716, "lon": -7.615592, "tags": {"addr:street": "Rue Tariq Ibn Ziad", "amenity": "fuel", "brand": "Oilibya", "brand:wikidata": "Q7081491", "name": "Oilibya", "name:ar": "\u0623\u0648\u064a\u0644\u064a\u0628\u064a\u0627", "name:en": "Oilibya", "source": "Kaart Ground Survey 2018"}}, {"type": "node", "id": 5640585944, "lat": 33.5734283, "lon": -7.6150353, "tags": {"addr:street": "Rue Alyazidi Mohamed", "amenity": "fuel", "brand": "\u0634\u0644", "brand:ar": "\u0634\u0644", "brand:en": "Shell", "brand:es": "Shell", "brand:fr": "Shell", "brand:wikidata": "Q110716465", "name": "Shell \u0634\u0644", "name:ar": "\u0634\u0644", "name:de": "Shell", "name:en": "Shell", "name:es": "Shell", "name:fr": "Shell", "operator": "Shell", "operator:ar": "\u0634\u0644", "operator:es": "Shell", "operator:fr": "Shell", "operator:wikidata": "Q154950", "operator:wikipedia": "fr:Shell (entreprise)"}}, {"type": "node", "id": 5640585945, "lat": 33.572219, "lon": -7.6141208, "tags": {"amenity": "fuel", "brand": "TotalEnergies", "brand:wikidata": "Q154037", "brand:wikipedia": "fr:TotalEnergies", "name": "TotalEnergies"}}, {"type": "node", "id": 5641864368, "lat": 33.5835911, "lon": -7.6050094, "tags": {"addr:street": "Boulevard Mohammed VI", "amenity": "fuel", "brand": "Shell", "brand:ar": "\u0634\u0644", "brand:es": "Shell", "brand:fr": "Shell", "brand:wikidata": "Q110716465", "name": "Shell \u0634\u0644", "name:ar": "\u0634\u0644", "name:de": "Shell", "name:en": "Shell", "name:es": "Shell", "name:fr": "Shell", "operator": "Shell", "operator:ar": "\u0634\u0644", "operator:es": "Shell", "operator:fr": "Shell", "operator:wikidata": "Q154950", "operator:wikipedia": "fr:Shell (entreprise)"}}, {"type": "node", "id": 5648539786, "lat": 33.5033322, "lon": -7.6591383, "tags": {"amenity": "fuel"}}, {"type": "node", "id": 5650485116, "lat": 33.4498437, "lon": -7.5179838, "tags": {"addr:street": "P3336", "amenity": "fuel", "brand": "fixme", "source": "Kaart Ground Survey 2018"}}, {"type": "node", "id": 5650485237, "lat": 33.4307971, "lon": -7.5229345, "tags": {"addr:street": "N9", "amenity": "fuel", "brand": "Petromin Oils", "operator": "Petromin Oils", "source": "Kaart Ground Survey 2018"}}, {"type": "node", "id": 5652120330, "lat": 33.4541136, "lon": -7.5211152, "tags": {"addr:street": "Route Mediouna", "amenity": "fuel", "brand": "Total", "operator": "Total", "source": "Kaart Ground Survey 2018"}}, {"type": "node", "id": 5652660898, "lat": 33.2196892, "lon": -7.4228207, "tags": {"amenity": "fuel"}}, {"type": "node", "id": 5652660909, "lat": 33.2186571, "lon": -7.4243429, "tags": {"amenity": "fuel"}}, {"type": "node", "id": 5670372144, "lat": 33.566709, "lon": -7.6766458, "tags": {"addr:street": "Boulevard Oued Laou", "amenity": "fuel", "brand": "Afriquia \u0623\u0641\u0631\u064a\u0642\u064a\u0627", "brand:ar": "\u0623\u0641\u0631\u064a\u0642\u064a\u0627", "brand:wikidata": "Q56300032", "brand:wikipedia": "ar:\u0645\u062c\u0645\u0648\u0639\u0629 \u0623\u0643\u0648\u0627", "brand:wikipedia:ar": "\u0645\u062c\u0645\u0648\u0639\u0629 \u0623\u0643\u0648\u0627", "name": "Afriquia \u0623\u0641\u0631\u064a\u0642\u064a\u0627", "name:ar": "\u0623\u0641\u0631\u064a\u0642\u064a\u0627", "name:en": "Afriquia", "name:fr": "Afriquia", "operator": "\u0645\u062c\u0645\u0648\u0639\u0629 \u0623\u0643\u0648\u0627", "operator:ar": "\u0645\u062c\u0645\u0648\u0639\u0629 \u0623\u0643\u0648\u0627", "operator:wikidata": "Q2829178", "operator:wikipedia": "ar:\u0645\u062c\u0645\u0648\u0639\u0629 \u0623\u0643\u0648\u0627", "operator:wikipedia:ar": "\u0645\u062c\u0645\u0648\u0639\u0629 \u0623\u0643\u0648\u0627"}}, {"type": "node", "id": 5683397713, "lat": 33.5341064, "lon": -7.7238849, "tags": {"amenity": "fuel", "name": "Petromin Oils", "source": "Kaart Ground Survey 2018"}}, {"type": "node", "id": 5694034965, "lat": 33.669425, "lon": -7.4421759, "tags": {"amenity": "fuel"}}, {"type": "node", "id": 5694035192, "lat": 33.6761131, "lon": -7.4220376, "tags": {"amenity": "fuel"}}, {"type": "node", "id": 5709762776, "lat": 33.4840579, "lon": -7.8934176, "tags": {"amenity": "fuel"}}, {"type": "node", "id": 5732872739, "lat": 33.5123915, "lon": -7.701579, "tags": {"amenity": "fuel"}}, {"type": "node", "id": 5759503738, "lat": 33.5903498, "lon": -7.1573682, "tags": {"amenity": "fuel"}}, {"type": "node", "id": 5759503788, "lat": 33.5903856, "lon": -7.1563275, "tags": {"amenity": "fuel"}}, {"type": "node", "id": 5924801609, "lat": 33.4707806, "lon": -7.7755184, "tags": {"amenity": "fuel"}}, {"type": "node", "id": 5955754488, "lat": 33.7871047, "lon": -7.223121, "tags": {"amenity": "fuel"}}, {"type": "node", "id": 6147524473, "lat": 33.4780755, "lon": -7.7558921, "tags": {"amenity": "fuel", "description": "station service", "name": "Petromin oil"}}, {"type": "node", "id": 6382128434, "lat": 33.5978924, "lon": -7.1495236, "tags": {"amenity": "fuel"}}, {"type": "node", "id": 6411404062, "lat": 33.5958156, "lon": -7.6006599, "tags": {"amenity": "fuel", "brand": "Shell", "brand:ar": "\u0634\u0644", "brand:es": "Shell", "brand:fr": "Shell", "brand:wikidata": "Q110716465", "name": "Shell \u0634\u0644", "name:ar": "\u0634\u0644", "name:de": "Shell", "name:en": "Shell", "name:es": "Shell", "name:fr": "Shell", "operator": "Shell", "operator:ar": "\u0634\u0644", "operator:es": "Shell", "operator:fr": "Shell", "operator:wikidata": "Q154950", "operator:wikipedia": "fr:Shell (entreprise)"}}, {"type": "node", "id": 6433083014, "lat": 33.4163675, "lon": -7.8634178, "tags": {"amenity": "fuel", "name": "Shell Had Soualem"}}, {"type": "node", "id": 6433089698, "lat": 33.4333395, "lon": -7.830964, "tags": {"addr:city": "\u062d\u062f \u0627\u0644\u0633\u0648\u0627\u0644\u0645", "addr:city:ar": "\u062d\u062f \u0627\u0644\u0633\u0648\u0627\u0644\u0645", "amenity": "fuel", "brand": "\u0634\u0644", "brand:ar": "\u0634\u0644", "brand:wikidata": "Q154950", "brand:wikipedia": "ar:\u0631\u0648\u064a\u0627\u0644 \u062f\u0627\u062a\u0634 \u0634\u0644", "brand:wikipedia:ar": "\u0631\u0648\u064a\u0627\u0644 \u062f\u0627\u062a\u0634 \u0634\u0644", "name": "Shell Had Soualem \u0634\u0644 \u062d\u062f \u0627\u0644\u0633\u0648\u0627\u0644\u0645", "name:ar": "\u0634\u0644 \u062d\u062f \u0627\u0644\u0633\u0648\u0627\u0644\u0645", "name:en": "Shell Had Soualem"}}, {"type": "node", "id": 6474152133, "lat": 33.5194105, "lon": -7.6933359, "tags": {"amenity": "fuel"}}, {"type": "node", "id": 6474152379, "lat": 33.4851447, "lon": -7.6722805, "tags": {"amenity": "fuel"}}, {"type": "node", "id": 6593075832, "lat": 33.5063662, "lon": -7.6314428, "tags": {"amenity": "fuel", "brand": "Shell", "brand:ar": "\u0634\u0644", "brand:es": "Shell", "brand:fr": "Shell", "brand:wikidata": "Q110716465", "fuel:diesel": "yes", "fuel:octane_95": "yes", "name": "Shell \u0634\u0644", "name:ar": "\u0634\u0644", "name:de": "Shell", "name:en": "Shell", "name:es": "Shell", "name:fr": "Shell", "operator": "Shell", "operator:ar": "\u0634\u0644", "operator:es": "Shell", "operator:fr": "Shell", "operator:wikidata": "Q154950", "operator:wikipedia": "fr:Shell (entreprise)"}}, {"type": "node", "id": 6593094659, "lat": 33.5134999, "lon": -7.6316073, "tags": {"amenity": "fuel", "brand": "Afriquia \u0623\u0641\u0631\u064a\u0642\u064a\u0627", "brand:ar": "\u0623\u0641\u0631\u064a\u0642\u064a\u0627", "brand:wikidata": "Q56300032", "brand:wikipedia": "ar:\u0645\u062c\u0645\u0648\u0639\u0629 \u0623\u0643\u0648\u0627", "brand:wikipedia:ar": "\u0645\u062c\u0645\u0648\u0639\u0629 \u0623\u0643\u0648\u0627", "name": "Afriquia \u0623\u0641\u0631\u064a\u0642\u064a\u0627", "name:ar": "\u0623\u0641\u0631\u064a\u0642\u064a\u0627", "name:en": "Afriquia", "name:fr": "Afriquia", "operator": "\u0645\u062c\u0645\u0648\u0639\u0629 \u0623\u0643\u0648\u0627", "operator:ar": "\u0645\u062c\u0645\u0648\u0639\u0629 \u0623\u0643\u0648\u0627", "operator:wikidata": "Q2829178", "operator:wikipedia": "ar:\u0645\u062c\u0645\u0648\u0639\u0629 \u0623\u0643\u0648\u0627", "operator:wikipedia:ar": "\u0645\u062c\u0645\u0648\u0639\u0629 \u0623\u0643\u0648\u0627"}}, {"type": "node", "id": 6593094660, "lat": 33.4874825, "lon": -7.6338318, "tags": {"amenity": "fuel", "name": "Petromine Bouskoura"}}, {"type": "node", "id": 6615430654, "lat": 33.2988884, "lon": -7.598872, "tags": {"amenity": "fuel"}}, {"type": "node", "id": 6777043281, "lat": 33.6729035, "lon": -7.3514061, "tags": {"amenity": "fuel"}}, {"type": "node", "id": 6949812923, "lat": 33.247122, "lon": -7.5862937, "tags": {"amenity": "fuel"}}, {"type": "node", "id": 6949812935, "lat": 33.2362016, "lon": -7.5894211, "tags": {"amenity": "fuel"}}, {"type": "node", "id": 6974301486, "lat": 33.3348057, "lon": -7.5685885, "tags": {"amenity": "fuel"}}, {"type": "node", "id": 6974317034, "lat": 33.4662505, "lon": -7.5141552, "tags": {"amenity": "fuel"}}, {"type": "node", "id": 6976675121, "lat": 33.4569214, "lon": -7.5214191, "tags": {"amenity": "fuel"}}, {"type": "node", "id": 7171037485, "lat": 33.5536408, "lon": -7.5916834, "tags": {"amenity": "fuel"}}, {"type": "node", "id": 8065625473, "lat": 33.3580505, "lon": -7.7645665, "tags": {"amenity": "fuel"}}, {"type": "node", "id": 8272624514, "lat": 33.4684356, "lon": -7.7812827, "tags": {"amenity": "fuel"}}, {"type": "node", "id": 8331191481, "lat": 33.7825219, "lon": -7.176871, "tags": {"amenity": "fuel"}}, {"type": "node", "id": 8391233250, "lat": 33.5661757, "lon": -7.5059259, "tags": {"amenity": "fuel"}}, {"type": "node", "id": 8401207100, "lat": 33.5175058, "lon": -7.7579516, "tags": {"amenity": "fuel"}}, {"type": "node", "id": 8874451790, "lat": 33.4445833, "lon": -8.0269839, "tags": {"amenity": "fuel", "brand": "Independent", "fuel:diesel": "no", "fuel:octane_95": "no"}}, {"type": "node", "id": 9976884417, "lat": 33.8363676, "lon": -7.059252, "tags": {"amenity": "fuel", "name:fr": "Station Service Yoom Mimosa"}}, {"type": "node", "id": 9983889885, "lat": 33.8464526, "lon": -7.0441574, "tags": {"amenity": "fuel", "brand": "Ziz", "brand:wikidata": "Q88393228", "name": "Ziz"}}, {"type": "node", "id": 9983920170, "lat": 33.8526931, "lon": -7.0377735, "tags": {"amenity": "fuel", "brand": "Shell Express", "brand:wikidata": "Q2289188", "name": "Shell Skhirat"}}, {"type": "node", "id": 9985889506, "lat": 33.8236832, "lon": -7.0399351, "tags": {"amenity": "fuel", "brand": "Winxo", "brand:wikidata": "Q88389320", "name": "Winxo"}}, {"type": "node", "id": 9993864472, "lat": 33.8613343, "lon": -7.0181403, "tags": {"amenity": "fuel"}}, {"type": "node", "id": 10033975617, "lat": 33.829688, "lon": -7.0745778, "tags": {"amenity": "fuel", "name:en": "moove oil"}}, {"type": "node", "id": 10169627382, "lat": 33.6206902, "lon": -7.4572487, "tags": {"amenity": "fuel"}}, {"type": "node", "id": 10169627390, "lat": 33.6021731, "lon": -7.4675277, "tags": {"amenity": "fuel"}}, {"type": "node", "id": 10169627398, "lat": 33.6222385, "lon": -7.4549535, "tags": {"amenity": "fuel"}}, {"type": "node", "id": 10170101590, "lat": 33.6316391, "lon": -7.333459, "tags": {"amenity": "fuel"}}, {"type": "node", "id": 10628053242, "lat": 33.664352, "lon": -7.2509767, "tags": {"amenity": "fuel"}}, {"type": "node", "id": 10628065655, "lat": 33.4908342, "lon": -7.5825205, "tags": {"amenity": "fuel"}}, {"type": "node", "id": 10628127912, "lat": 33.517846, "lon": -7.6102363, "tags": {"amenity": "fuel"}}, {"type": "node", "id": 10708921295, "lat": 33.2995563, "lon": -7.5978318, "tags": {"amenity": "fuel"}}, {"type": "node", "id": 10709006480, "lat": 33.5430389, "lon": -7.4087843, "tags": {"amenity": "fuel"}}, {"type": "node", "id": 10709029271, "lat": 33.6223185, "lon": -7.1619996, "tags": {"amenity": "fuel"}}, {"type": "node", "id": 10709029272, "lat": 33.6233057, "lon": -7.1632871, "tags": {"amenity": "fuel"}}, {"type": "node", "id": 10709086430, "lat": 33.4980671, "lon": -7.5039893, "tags": {"amenity": "fuel"}}, {"type": "node", "id": 10710975570, "lat": 33.4292521, "lon": -7.8193849, "tags": {"amenity": "fuel"}}, {"type": "node", "id": 10871648105, "lat": 33.5058597, "lon": -7.7106339, "tags": {"amenity": "fuel", "name:en": "PetrominOils"}}, {"type": "node", "id": 11189256919, "lat": 33.2445159, "lon": -7.5868994, "tags": {"amenity": "fuel"}}, {"type": "node", "id": 11935246567, "lat": 33.4840618, "lon": -7.6255091, "tags": {"amenity": "fuel", "name": "FastVolt Charging Station"}}, {"type": "node", "id": 11935252674, "lat": 33.5101238, "lon": -7.6078073, "tags": {"amenity": "fuel", "brand": "TotalEnergies", "brand:wikidata": "Q154037", "fuel:electricity": "yes", "name": "TotalEnergies"}}, {"type": "node", "id": 12212818574, "lat": 33.6904476, "lon": -7.3647587, "tags": {"amenity": "fuel"}}, {"type": "node", "id": 12346139251, "lat": 33.7893084, "lon": -7.1609482, "tags": {"amenity": "fuel", "brand": "Winxo", "brand:wikidata": "Q88389320", "name": "winxo"}}, {"type": "node", "id": 12346175319, "lat": 33.7683943, "lon": -7.1562422, "tags": {"amenity": "fuel", "brand": "Afriquia \u0623\u0641\u0631\u064a\u0642\u064a\u0627", "brand:ar": "\u0623\u0641\u0631\u064a\u0642\u064a\u0627", "brand:en": "Afriquia", "brand:wikidata": "Q56300032", "name": "afriquia", "name:ar": "\u0623\u0641\u0631\u064a\u0642\u064a\u0627", "name:en": "Afriquia"}}, {"type": "node", "id": 12375930716, "lat": 33.3989278, "lon": -7.9086304, "tags": {"amenity": "fuel", "brand": "Petrom", "brand:wikidata": "Q110028558", "name": "petrom"}}, {"type": "node", "id": 12375930717, "lat": 33.460726, "lon": -7.8013131, "tags": {"amenity": "fuel"}}, {"type": "node", "id": 12377354670, "lat": 33.6113102, "lon": -7.1209432, "tags": {"addr:city": "Benslimane \u0627\u0628\u0646 \u0633\u0644\u064a\u0645\u0627\u0646", "amenity": "fuel", "brand": "TotalEnergies \u0637\u0648\u0637\u0627\u0644 \u0625\u0646\u0631\u062c\u064a\u0632", "brand:ar": "\u0637\u0648\u0637\u0627\u0644 \u0625\u0646\u0631\u062c\u064a\u0632", "brand:fr": "TotalEnergies", "brand:wikidata": "Q154037", "name": "Total \u0637\u0648\u0637\u0627\u0644", "name:ar": "\u0637\u0648\u0637\u0627\u0644", "name:fr": "Total"}}, {"type": "node", "id": 12377354675, "lat": 33.6117746, "lon": -7.1205197, "tags": {"amenity": "fuel", "brand": "Winxo", "brand:wikidata": "Q88389320", "name": "winxo"}}, {"type": "node", "id": 12377354680, "lat": 33.6176958, "lon": -7.1241039, "tags": {"addr:city": "Benslimane \u0627\u0628\u0646 \u0633\u0644\u064a\u0645\u0627\u0646", "amenity": "fuel", "brand": "TotalEnergies \u0637\u0648\u0637\u0627\u0644 \u0625\u0646\u0631\u062c\u064a\u0632", "brand:ar": "\u0637\u0648\u0637\u0627\u0644 \u0625\u0646\u0631\u062c\u064a\u0632", "brand:fr": "TotalEnergies", "brand:wikidata": "Q154037", "name": "Total \u0637\u0648\u0637\u0627\u0644", "name:ar": "\u0637\u0648\u0637\u0627\u0644", "name:fr": "Total"}}, {"type": "node", "id": 12691612176, "lat": 33.5928952, "lon": -7.6537852, "tags": {"amenity": "fuel", "brand": "Afriquia \u0627\u0641\u0631\u064a\u0642\u064a\u0627", "brand:ar": "\u0627\u0641\u0631\u064a\u0642\u064a\u0627", "brand:fr": "Afriquia", "brand:wikidata": "Q56300032", "name": "Afriquia \u0623\u0641\u0631\u064a\u0642\u064a\u0627", "name:ar": "\u0623\u0641\u0631\u064a\u0642\u064a\u0627", "name:fr": "Afriquia"}}, {"type": "node", "id": 12909601283, "lat": 33.5871792, "lon": -7.6326481, "tags": {"amenity": "fuel", "brand": "Winxo", "brand:wikidata": "Q88389320", "check_date": "2025-06-12", "name": "Winxo"}}, {"type": "node", "id": 12909601284, "lat": 33.5893951, "lon": -7.6487636, "tags": {"amenity": "fuel", "branch": "V\u00e9lodrome", "brand": "TotalEnergies", "brand:wikidata": "Q154037", "check_date": "2025-06-12", "name": "TotalEnergies"}}, {"type": "node", "id": 12909601288, "lat": 33.5908868, "lon": -7.6544266, "tags": {"amenity": "fuel", "brand": "Winxo", "brand:wikidata": "Q88389320", "name": "Winxo"}}, {"type": "node", "id": 12909722009, "lat": 33.5859836, "lon": -7.6295492, "tags": {"amenity": "fuel", "brand": "Petrom", "brand:wikidata": "Q110028558", "name": "Petrom"}}, {"type": "node", "id": 12909744915, "lat": 33.5947001, "lon": -7.6403767, "tags": {"addr:street": "Boulevard Ain Taoujtate \u0639\u064a\u0646 \u062a\u0627\u0648\u062c\u0637\u0627\u062a", "amenity": "fuel", "brand": "\u0634\u0644", "brand:ar": "\u0634\u0644", "brand:en": "Shell", "brand:es": "Shell", "brand:fr": "Shell", "brand:wikidata": "Q110716465", "check_date": "2025-06-12", "name": "Shell \u0634\u0644", "name:ar": "\u0634\u0644", "name:de": "Shell", "name:en": "Shell", "name:es": "Shell", "name:fr": "Shell", "operator": "Shell", "operator:ar": "\u0634\u0644", "operator:es": "Shell", "operator:fr": "Shell", "operator:wikidata": "Q154950", "operator:wikipedia": "fr:Shell (entreprise)"}}, {"type": "node", "id": 12915229855, "lat": 33.5788843, "lon": -7.6548925, "tags": {"amenity": "fuel", "brand": "Winxo", "brand:wikidata": "Q88389320", "name": "Winxo"}}, {"type": "node", "id": 12917656221, "lat": 33.584964, "lon": -7.6503707, "tags": {"amenity": "fuel", "brand": "Oilibya", "brand:wikidata": "Q7081491", "name": "Oilibya", "name:ar": "\u0623\u0648\u064a\u0644\u064a\u0628\u064a\u0627", "name:en": "Oilibya"}}, {"type": "node", "id": 12917671801, "lat": 33.5866569, "lon": -7.6492541, "tags": {"amenity": "fuel", "brand": "\u0634\u0644", "brand:ar": "\u0634\u0644", "brand:en": "Shell", "brand:wikidata": "Q110716465", "name": "\u0634\u0644", "name:ar": "\u0634\u0644", "name:en": "Shell"}}, {"type": "node", "id": 12927390317, "lat": 33.5572335, "lon": -7.6449281, "tags": {"addr:street": "Route Al Jamiaa", "amenity": "fuel", "brand": "Winxo", "brand:wikidata": "Q88389320", "mapillary": "518957405794301", "name": "Winxo"}}, {"type": "node", "id": 12927405165, "lat": 33.5583886, "lon": -7.6449607, "tags": {"addr:street": "Route Al Jamiaa", "amenity": "fuel", "brand": "\u0634\u0644", "brand:ar": "\u0634\u0644", "brand:en": "Shell", "brand:wikidata": "Q110716465", "name": "\u0634\u0644", "name:ar": "\u0634\u0644", "name:en": "Shell"}}, {"type": "node", "id": 12960995323, "lat": 33.5649014, "lon": -7.0442748, "tags": {"amenity": "fuel", "brand": "Petromin", "name": "Petromin Oils", "self_service": "no"}}, {"type": "node", "id": 12961045386, "lat": 33.5839975, "lon": -7.0697283, "tags": {"amenity": "fuel", "brand": "Shell", "name": "Station Shell SOUK BENSLIMANE", "self_service": "no"}}, {"type": "node", "id": 13079053228, "lat": 33.5682134, "lon": -7.6447384, "tags": {"amenity": "fuel", "branch": "Riviera", "brand": "TotalEnergies", "brand:wikidata": "Q154037", "name": "TotalEnergies"}}, {"type": "node", "id": 13079053243, "lat": 33.5676224, "lon": -7.6446721, "tags": {"amenity": "fuel", "brand": "Petrom", "brand:wikidata": "Q110028558", "name": "Petrom"}}, {"type": "node", "id": 13079167472, "lat": 33.5666297, "lon": -7.6446747, "tags": {"amenity": "fuel", "brand": "\u0634\u0644", "brand:ar": "\u0634\u0644", "brand:en": "Shell", "brand:wikidata": "Q110716465", "name": "\u0634\u0644", "name:ar": "\u0634\u0644", "name:en": "Shell"}}, {"type": "node", "id": 13079615733, "lat": 33.5732463, "lon": -7.6558785, "tags": {"amenity": "fuel", "brand": "\u0634\u0644", "brand:ar": "\u0634\u0644", "brand:en": "Shell", "brand:wikidata": "Q110716465", "name": "\u0634\u0644", "name:ar": "\u0634\u0644", "name:en": "Shell"}}, {"type": "node", "id": 13079622201, "lat": 33.5652539, "lon": -7.6448191, "tags": {"amenity": "fuel", "brand": "Winxo", "brand:wikidata": "Q88389320", "name": "Winxo"}}, {"type": "node", "id": 13080332131, "lat": 33.5812925, "lon": -7.6528463, "tags": {"amenity": "fuel", "branch": "Chantilly", "brand": "Afriquia \u0623\u0641\u0631\u064a\u0642\u064a\u0627", "brand:ar": "\u0623\u0641\u0631\u064a\u0642\u064a\u0627", "brand:en": "Afriquia", "brand:wikidata": "Q56300032", "name": "Afriquia \u0623\u0641\u0631\u064a\u0642\u064a\u0627", "name:ar": "\u0623\u0641\u0631\u064a\u0642\u064a\u0627", "name:en": "Afriquia"}}, {"type": "node", "id": 13082782998, "lat": 33.5793602, "lon": -7.6363595, "tags": {"amenity": "fuel", "brand": "Winxo", "brand:wikidata": "Q88389320", "name": "Winxo"}}, {"type": "node", "id": 13082835508, "lat": 33.5777302, "lon": -7.6376695, "tags": {"amenity": "fuel", "brand": "\u0634\u0644", "brand:ar": "\u0634\u0644", "brand:en": "Shell", "brand:wikidata": "Q110716465", "name": "\u0634\u0644", "name:ar": "\u0634\u0644", "name:en": "Shell"}}, {"type": "node", "id": 13082879349, "lat": 33.586071, "lon": -7.6490514, "tags": {"amenity": "fuel", "brand": "Petrom", "brand:wikidata": "Q110028558", "name": "Petrom"}}, {"type": "node", "id": 13083739163, "lat": 33.5870781, "lon": -7.6413118, "tags": {"addr:street": "Boulevard Al Massira Al Khadra \u0634\u0627\u0631\u0639 \u0627\u0644\u0645\u0633\u064a\u0631\u0629 \u0627\u0644\u062e\u0636\u0631\u0627\u0621", "amenity": "fuel", "branch": "Al Massira", "brand": "TotalEnergies", "brand:wikidata": "Q154037", "name": "TotalEnergies", "self_service": "no"}}, {"type": "node", "id": 13093061084, "lat": 33.5714069, "lon": -7.6687764, "tags": {"amenity": "fuel", "brand": "\u0634\u0644", "brand:ar": "\u0634\u0644", "brand:en": "Shell", "brand:wikidata": "Q110716465", "name": "\u0634\u0644", "name:ar": "\u0634\u0644", "name:en": "Shell"}}, {"type": "node", "id": 13093103105, "lat": 33.5824232, "lon": -7.6241383, "tags": {"addr:street": "Boulevard Abdelmoumen \u0634\u0627\u0631\u0639 \u0639\u0628\u062f \u0627\u0644\u0645\u0648\u0645\u0646", "amenity": "fuel", "brand": "\u0634\u0644", "brand:ar": "\u0634\u0644", "brand:en": "Shell", "brand:wikidata": "Q110716465", "name": "\u0634\u0644", "name:ar": "\u0634\u0644", "name:en": "Shell"}}, {"type": "node", "id": 13093103106, "lat": 33.5829573, "lon": -7.6232996, "tags": {"amenity": "fuel", "brand": "Winxo", "brand:wikidata": "Q88389320", "name": "Winxo"}}, {"type": "node", "id": 13093103109, "lat": 33.5739847, "lon": -7.6157376, "tags": {"amenity": "fuel", "brand": "Winxo", "brand:wikidata": "Q88389320", "name": "Winxo"}}, {"type": "node", "id": 13093103110, "lat": 33.574361, "lon": -7.6156227, "tags": {"amenity": "fuel", "brand": "Ziz", "brand:wikidata": "Q88393228", "name": "Ziz"}}, {"type": "node", "id": 13094966008, "lat": 33.5695933, "lon": -7.6117378, "tags": {"addr:street": "Avenue 2 Mars \u0634\u0627\u0631\u0639 2 \u0645\u0627\u0631\u0633", "amenity": "fuel", "brand": "Winxo", "brand:wikidata": "Q88389320", "name": "Winxo"}}, {"type": "node", "id": 13104112519, "lat": 33.6064737, "lon": -7.6267572, "tags": {"amenity": "fuel", "brand": "SOMAP", "name": "SOMAP"}}, {"type": "node", "id": 13104112520, "lat": 33.606617, "lon": -7.62711, "tags": {"amenity": "fuel", "brand": "\u0634\u0644", "brand:ar": "\u0634\u0644", "brand:en": "Shell", "brand:wikidata": "Q110716465", "name": "\u0634\u0644", "name:ar": "\u0634\u0644", "name:en": "Shell"}}, {"type": "node", "id": 13105118121, "lat": 33.5534601, "lon": -7.690787, "tags": {"amenity": "fuel", "brand": "Winxo", "brand:wikidata": "Q88389320", "name": "Winxo"}}, {"type": "node", "id": 13107599827, "lat": 33.5835237, "lon": -7.6297748, "tags": {"amenity": "fuel", "brand": "\u0634\u0644", "brand:ar": "\u0634\u0644", "brand:en": "Shell", "brand:wikidata": "Q110716465", "name": "\u0634\u0644", "name:ar": "\u0634\u0644", "name:en": "Shell"}}, {"type": "node", "id": 13115042155, "lat": 33.573009, "lon": -7.626132, "tags": {"addr:street": "Boulevard Abdelmoumen \u0634\u0627\u0631\u0639 \u0639\u0628\u062f \u0627\u0644\u0645\u0648\u0645\u0646", "amenity": "fuel", "branch": "Abdelmoumen", "brand": "TotalEnergies", "brand:wikidata": "Q154037", "name": "TotalEnergies"}}, {"type": "node", "id": 13138318151, "lat": 33.5579739, "lon": -7.6441792, "tags": {"addr:street": "Route Al Jamiaa", "amenity": "fuel", "brand": "\u0634\u0644", "brand:ar": "\u0634\u0644", "brand:de": "Shell", "brand:en": "Shell", "brand:es": "Shell", "brand:fr": "Shell", "brand:wikidata": "Q110716465", "name": "\u0634\u0644", "name:ar": "\u0634\u0644", "name:de": "Shell", "name:en": "Shell", "name:es": "Shell", "name:fr": "Shell", "operator": "Shell", "operator:ar": "\u0634\u0644", "operator:es": "Shell", "operator:fr": "Shell", "operator:wikidata": "Q154950", "operator:wikipedia": "fr:Shell (entreprise)"}}, {"type": "node", "id": 13158416140, "lat": 33.5573563, "lon": -7.6340302, "tags": {"addr:street": "Rue Immam Mouslim", "amenity": "fuel", "source": "Kaart Ground Survey 2018"}}, {"type": "node", "id": 13167613105, "lat": 33.5741329, "lon": -7.6407553, "tags": {"addr:street": "Boulevard Brahim Roudani \u0634\u0627\u0631\u0639 \u0627\u0628\u0631\u0627\u0647\u064a\u0645 \u0627\u0644\u0631\u0648\u062f\u0627\u0646\u064a", "amenity": "fuel", "name": "Samir Oil", "source": "Kaart Ground Survey 2018"}}, {"type": "node", "id": 13171850808, "lat": 33.5721726, "lon": -7.6422625, "tags": {"amenity": "fuel", "brand": "TotalEnergies", "brand:wikidata": "Q154037", "brand:wikipedia": "fr:TotalEnergies", "name": "TotalEnergies"}}, {"type": "node", "id": 13173181526, "lat": 33.5515612, "lon": -7.6104452, "tags": {"addr:street": "Avenue de Nador", "amenity": "fuel", "brand": "Afriquia \u0623\u0641\u0631\u064a\u0642\u064a\u0627", "brand:ar": "\u0623\u0641\u0631\u064a\u0642\u064a\u0627", "brand:en": "Afriquia", "brand:wikidata": "Q56300032", "brand:wikipedia": "ar:\u0645\u062c\u0645\u0648\u0639\u0629 \u0623\u0643\u0648\u0627", "brand:wikipedia:ar": "\u0645\u062c\u0645\u0648\u0639\u0629 \u0623\u0643\u0648\u0627", "name": "Afriquia \u0623\u0641\u0631\u064a\u0642\u064a\u0627", "name:ar": "\u0623\u0641\u0631\u064a\u0642\u064a\u0627", "name:en": "Afriquia", "name:fr": "Afriquia", "operator": "\u0645\u062c\u0645\u0648\u0639\u0629 \u0623\u0643\u0648\u0627", "operator:ar": "\u0645\u062c\u0645\u0648\u0639\u0629 \u0623\u0643\u0648\u0627", "operator:wikidata": "Q2829178", "operator:wikipedia": "ar:\u0645\u062c\u0645\u0648\u0639\u0629 \u0623\u0643\u0648\u0627", "operator:wikipedia:ar": "\u0645\u062c\u0645\u0648\u0639\u0629 \u0623\u0643\u0648\u0627"}}, {"type": "node", "id": 13175181559, "lat": 33.5589783, "lon": -7.645051, "tags": {"addr:street": "Route Al Jamiaa", "amenity": "fuel", "brand": "Afriquia \u0623\u0641\u0631\u064a\u0642\u064a\u0627", "brand:ar": "\u0623\u0641\u0631\u064a\u0642\u064a\u0627", "brand:en": "Afriquia", "brand:wikidata": "Q56300032", "brand:wikipedia": "ar:\u0645\u062c\u0645\u0648\u0639\u0629 \u0623\u0643\u0648\u0627", "brand:wikipedia:ar": "\u0645\u062c\u0645\u0648\u0639\u0629 \u0623\u0643\u0648\u0627", "name": "Afriquia \u0623\u0641\u0631\u064a\u0642\u064a\u0627", "name:ar": "\u0623\u0641\u0631\u064a\u0642\u064a\u0627", "name:en": "Afriquia", "name:fr": "Afriquia", "operator": "\u0645\u062c\u0645\u0648\u0639\u0629 \u0623\u0643\u0648\u0627", "operator:ar": "\u0645\u062c\u0645\u0648\u0639\u0629 \u0623\u0643\u0648\u0627", "operator:wikidata": "Q2829178", "operator:wikipedia": "ar:\u0645\u062c\u0645\u0648\u0639\u0629 \u0623\u0643\u0648\u0627", "operator:wikipedia:ar": "\u0645\u062c\u0645\u0648\u0639\u0629 \u0623\u0643\u0648\u0627"}}, {"type": "node", "id": 13179271202, "lat": 33.556138, "lon": -7.6242723, "tags": {"addr:street": "Route de Taddart", "amenity": "fuel", "brand": "\u0634\u0644", "brand:ar": "\u0634\u0644", "brand:en": "Shell", "brand:wikidata": "Q110716465", "name": "\u0634\u0644", "name:ar": "\u0634\u0644", "name:en": "Shell", "source": "Kaart Ground Survey 2018"}}, {"type": "node", "id": 13186892479, "lat": 33.5660249, "lon": -7.637718, "tags": {"amenity": "fuel", "brand": "TotalEnergies", "brand:wikidata": "Q154037", "brand:wikipedia": "fr:TotalEnergies", "name": "TotalEnergies"}}, {"type": "node", "id": 13186962656, "lat": 33.5680584, "lon": -7.641371, "tags": {"addr:street": "Boulevard Ghandi", "amenity": "fuel", "brand": "Petrom", "brand:wikidata": "Q110028558", "name": "Petrom", "source": "Kaart Ground Survey 2018"}}, {"type": "node", "id": 13195505728, "lat": 33.5055174, "lon": -7.6780122, "tags": {"amenity": "fuel", "brand": "Afriquia \u0623\u0641\u0631\u064a\u0642\u064a\u0627", "brand:ar": "\u0623\u0641\u0631\u064a\u0642\u064a\u0627", "brand:en": "Afriquia", "brand:wikidata": "Q56300032", "name": "Afriquia \u0623\u0641\u0631\u064a\u0642\u064a\u0627", "name:ar": "\u0623\u0641\u0631\u064a\u0642\u064a\u0627", "name:en": "Afriquia"}}, {"type": "node", "id": 13235327163, "lat": 33.5330921, "lon": -7.6815331, "tags": {"amenity": "fuel", "brand": "Petromin", "name": "Petromin", "source": "Kaart Ground Survey 2018"}}, {"type": "node", "id": 13235356540, "lat": 33.5447787, "lon": -7.6384071, "tags": {"addr:street": "Route de Marrakech", "amenity": "fuel", "brand": "Afriquia \u0623\u0641\u0631\u064a\u0642\u064a\u0627", "brand:ar": "\u0623\u0641\u0631\u064a\u0642\u064a\u0627", "brand:en": "Afriquia", "brand:wikidata": "Q56300032", "compressed_air": "yes", "name": "Afriquia \u0623\u0641\u0631\u064a\u0642\u064a\u0627", "name:ar": "\u0623\u0641\u0631\u064a\u0642\u064a\u0627", "name:en": "Afriquia", "source": "local knowledge"}}, {"type": "node", "id": 13251918770, "lat": 33.6473718, "lon": -7.4178972, "tags": {"amenity": "fuel"}}, {"type": "node", "id": 13280685927, "lat": 33.5636025, "lon": -7.6338212, "tags": {"addr:street": "Boulevard Ghandi \u0634\u0627\u0631\u0639 \u063a\u0627\u0646\u062f\u064a", "amenity": "fuel", "brand": "Ziz", "brand:wikidata": "Q88393228", "name": "Ziz", "source": "Kaart Ground Survey 2018"}}, {"type": "node", "id": 13302093110, "lat": 33.610889, "lon": -7.5634762, "tags": {"addr:street": "Route de Zenata", "amenity": "fuel", "brand": "Afriquia \u0623\u0641\u0631\u064a\u0642\u064a\u0627", "brand:ar": "\u0623\u0641\u0631\u064a\u0642\u064a\u0627", "brand:en": "Afriquia", "brand:wikidata": "Q56300032", "name": "Afriquia \u0623\u0641\u0631\u064a\u0642\u064a\u0627", "name:ar": "\u0623\u0641\u0631\u064a\u0642\u064a\u0627", "name:en": "Afriquia", "source": "Kaart Ground Survey 2018", "wall": "no"}}, {"type": "node", "id": 13321924955, "lat": 33.5748006, "lon": -7.6820913, "tags": {"amenity": "fuel"}}, {"type": "node", "id": 13322000394, "lat": 33.5771322, "lon": -7.6745162, "tags": {"addr:street": "Boulevard Abdelhadi Boutaleb \u0634\u0627\u0631\u0639 \u0639\u0628\u062f \u0627\u0644\u0647\u0627\u062f\u064a \u0628\u0648\u0637\u0627\u0644\u0628", "amenity": "fuel", "brand": "Afriquia \u0623\u0641\u0631\u064a\u0642\u064a\u0627", "brand:ar": "\u0623\u0641\u0631\u064a\u0642\u064a\u0627", "brand:en": "Afriquia", "brand:wikidata": "Q56300032", "name": "Afriquia \u0623\u0641\u0631\u064a\u0642\u064a\u0627", "name:ar": "\u0623\u0641\u0631\u064a\u0642\u064a\u0627", "name:en": "Afriquia"}}, {"type": "node", "id": 13325287384, "lat": 33.5985295, "lon": -7.6312042, "tags": {"amenity": "fuel", "brand": "Winxo", "brand:wikidata": "Q88389320", "landuse": "retail", "name": "Winxo"}}, {"type": "node", "id": 13336224931, "lat": 33.580795, "lon": -7.631818, "tags": {"addr:street": "Boulevard du 9 Avril \u0634\u0627\u0631\u0639 9 \u0623\u0628\u0631\u064a\u0644", "amenity": "fuel", "branch": "Palmiers", "brand": "TotalEnergies", "brand:wikidata": "Q154037", "name": "TotalEnergies"}}, {"type": "node", "id": 13360659549, "lat": 33.511217, "lon": -7.6100373, "tags": {"amenity": "fuel", "brand": "Afriquia \u0623\u0641\u0631\u064a\u0642\u064a\u0627", "brand:ar": "\u0623\u0641\u0631\u064a\u0642\u064a\u0627", "brand:en": "Afriquia", "brand:wikidata": "Q56300032", "brand:wikipedia": "ar:\u0645\u062c\u0645\u0648\u0639\u0629 \u0623\u0643\u0648\u0627", "brand:wikipedia:ar": "\u0645\u062c\u0645\u0648\u0639\u0629 \u0623\u0643\u0648\u0627", "fuel:diesel": "yes", "fuel:octane_95": "yes", "name": "Afriquia \u0623\u0641\u0631\u064a\u0642\u064a\u0627", "name:ar": "\u0623\u0641\u0631\u064a\u0642\u064a\u0627", "name:en": "Afriquia", "name:fr": "Afriquia", "operator": "\u0645\u062c\u0645\u0648\u0639\u0629 \u0623\u0643\u0648\u0627", "operator:ar": "\u0645\u062c\u0645\u0648\u0639\u0629 \u0623\u0643\u0648\u0627", "operator:wikidata": "Q2829178", "operator:wikipedia": "ar:\u0645\u062c\u0645\u0648\u0639\u0629 \u0623\u0643\u0648\u0627", "operator:wikipedia:ar": "\u0645\u062c\u0645\u0648\u0639\u0629 \u0623\u0643\u0648\u0627"}}, {"type": "node", "id": 13362551306, "lat": 33.5851808, "lon": -7.5753656, "tags": {"addr:street": "Boulevard Youssef Ibn Tachfine", "amenity": "fuel", "brand": "Winxo", "brand:wikidata": "Q88389320", "name": "Winxo", "source": "Kaart Ground Survey 2018"}}, {"type": "node", "id": 13365516787, "lat": 33.5773589, "lon": -7.6097341, "tags": {"addr:street": "Rue Constantinople", "amenity": "fuel", "brand": "Winxo", "brand:wikidata": "Q88389320", "name": "Winxo", "source": "Kaart Ground Survey 2018"}}, {"type": "node", "id": 13372200172, "lat": 33.2636311, "lon": -7.5976955, "tags": {"addr:city": "berrechid", "addr:postcode": "26100", "addr:street": "RR318", "amenity": "fuel", "brand": "Ziz", "brand:wikidata": "Q88393228", "fuel:Essence": "yes", "fuel:diesel": "yes", "name": "Station ZIZ", "payment:cards": "yes", "payment:cash": "yes", "toilets": "yes", "wheelchair": "yes"}}, {"type": "node", "id": 13378214038, "lat": 33.5521053, "lon": -7.5301918, "tags": {"amenity": "fuel"}}, {"type": "node", "id": 13415803491, "lat": 33.4350541, "lon": -7.5216131, "tags": {"amenity": "fuel"}}, {"type": "node", "id": 13435282530, "lat": 33.4294481, "lon": -7.5233525, "tags": {"amenity": "fuel"}}, {"type": "node", "id": 13435282553, "lat": 33.4296194, "lon": -7.5219455, "tags": {"amenity": "fuel"}}, {"type": "node", "id": 13534382012, "lat": 33.471688, "lon": -7.9594149, "tags": {"amenity": "fuel", "brand": "TotalEnergies", "brand:wikidata": "Q154037", "name": "Gas station TotalEnergies"}}, {"type": "node", "id": 13534382154, "lat": 33.4510902, "lon": -8.0055164, "tags": {"amenity": "fuel", "brand": "Petrom", "brand:wikidata": "Q110028558", "name": "Petrom"}}, {"type": "node", "id": 13534382155, "lat": 33.4626661, "lon": -7.9828807, "tags": {"amenity": "fuel", "brand": "Winxo", "brand:wikidata": "Q88389320", "name": "Winxo"}}, {"type": "node", "id": 13616986679, "lat": 33.5911212, "lon": -7.6575427, "tags": {"addr:street": "Boulevard Franklin Roosevelt", "amenity": "fuel", "brand": "\u0634\u0644", "brand:ar": "\u0634\u0644", "brand:en": "Shell", "brand:es": "Shell", "brand:fr": "Shell", "brand:wikidata": "Q110716465", "name": "Shell \u0634\u0644", "name:ar": "\u0634\u0644", "name:de": "Shell", "name:en": "Shell", "name:es": "Shell", "name:fr": "Shell", "operator": "Shell", "operator:ar": "\u0634\u0644", "operator:es": "Shell", "operator:fr": "Shell", "operator:wikidata": "Q154950", "operator:wikipedia": "fr:Shell (entreprise)"}}, {"type": "node", "id": 13621816801, "lat": 33.5333059, "lon": -7.493933, "tags": {"addr:housenumber": "lot 123", "addr:postcode": "29460", "addr:street": "Zone industrielle tit mellil", "amenity": "fuel", "internet_access": "wlan", "name": "Total energies Zi Tit mellil", "opening_hours": "Mo-Su 06:45-00:30", "operator": "Total energies"}}, {"type": "node", "id": 13735467501, "lat": 33.4218732, "lon": -7.8539686, "tags": {"alt_name": "\u0646\u0641\u0637 \u0644\u064a\u0628\u064a\u0627", "alt_name:ar": "\u0646\u0641\u0637 \u0644\u064a\u0628\u064a\u0627", "amenity": "fuel", "brand": "Oilibya", "brand:ar": "\u0623\u0648\u064a\u0644\u064a\u0628\u064a\u0627", "brand:wikidata": "Q126916526", "brand:wikipedia": "ar:\u0623\u0648\u064a\u0644\u064a\u0628\u064a\u0627", "brand:wikipedia:ar": "\u0623\u0648\u064a\u0644\u064a\u0628\u064a\u0627", "name": "Oilibya \u0623\u0648\u064a\u0644\u064a\u0628\u064a\u0627", "name:ar": "\u0623\u0648\u064a\u0644\u064a\u0628\u064a\u0627", "name:en": "Oilibya", "source": "Kaart Ground Survey 2018"}}, {"type": "node", "id": 13759122268, "lat": 33.5660332, "lon": -7.6262181, "tags": {"addr:street": "Boulevard Abdelmoumen \u0634\u0627\u0631\u0639 \u0639\u0628\u062f \u0627\u0644\u0645\u0648\u0645\u0646", "amenity": "fuel", "brand": "Afriquia \u0627\u0641\u0631\u064a\u0642\u064a\u0627", "brand:ar": "\u0627\u0641\u0631\u064a\u0642\u064a\u0627", "brand:fr": "Afriquia", "brand:wikidata": "Q56300032", "brand:wikipedia": "ar:\u0645\u062c\u0645\u0648\u0639\u0629 \u0623\u0643\u0648\u0627", "brand:wikipedia:ar": "\u0645\u062c\u0645\u0648\u0639\u0629 \u0623\u0643\u0648\u0627", "name": "Afriquia \u0623\u0641\u0631\u064a\u0642\u064a\u0627", "name:ar": "\u0623\u0641\u0631\u064a\u0642\u064a\u0627", "name:fr": "Afriquia", "operator": "\u0645\u062c\u0645\u0648\u0639\u0629 \u0623\u0643\u0648\u0627", "operator:ar": "\u0645\u062c\u0645\u0648\u0639\u0629 \u0623\u0643\u0648\u0627", "operator:wikidata": "Q2829178", "operator:wikipedia": "ar:\u0645\u062c\u0645\u0648\u0639\u0629 \u0623\u0643\u0648\u0627", "operator:wikipedia:ar": "\u0645\u062c\u0645\u0648\u0639\u0629 \u0623\u0643\u0648\u0627"}}, {"type": "node", "id": 13759122269, "lat": 33.5661626, "lon": -7.6267111, "tags": {"addr:street": "Boulevard Abdelmoumen", "amenity": "fuel", "brand": "Afriquia \u0627\u0641\u0631\u064a\u0642\u064a\u0627", "brand:ar": "\u0627\u0641\u0631\u064a\u0642\u064a\u0627", "brand:fr": "Afriquia", "brand:wikidata": "Q56300032", "brand:wikipedia": "ar:\u0645\u062c\u0645\u0648\u0639\u0629 \u0623\u0643\u0648\u0627", "brand:wikipedia:ar": "\u0645\u062c\u0645\u0648\u0639\u0629 \u0623\u0643\u0648\u0627", "name": "Afriquia \u0623\u0641\u0631\u064a\u0642\u064a\u0627", "name:ar": "\u0623\u0641\u0631\u064a\u0642\u064a\u0627", "name:fr": "Afriquia", "operator": "\u0645\u062c\u0645\u0648\u0639\u0629 \u0623\u0643\u0648\u0627", "operator:ar": "\u0645\u062c\u0645\u0648\u0639\u0629 \u0623\u0643\u0648\u0627", "operator:wikidata": "Q2829178", "operator:wikipedia": "ar:\u0645\u062c\u0645\u0648\u0639\u0629 \u0623\u0643\u0648\u0627", "operator:wikipedia:ar": "\u0645\u062c\u0645\u0648\u0639\u0629 \u0623\u0643\u0648\u0627"}}]}