{"version": 0.6, "generator": "Overpass API 0.7.62.11 87bfad18", "osm3s": {"timestamp_osm_base": "2026-05-22T03:27:34Z", "copyright": "The data included in this document is from www.openstreetmap.org. The data is made available under ODbL."}, "elements": [{"type": "node", "id": 2121564108, "lat": 33.5889869, "lon": -7.6183438, "tags": {"atm": "yes", "name": "Alpha 55", "shop": "mall", "wheelchair": "yes"}}, {"type": "node", "id": 2382145125, "lat": 33.5377715, "lon": -7.6431343, "tags": {"name": "Kiabi", "note": "Hardware Store", "shop": "mall"}}, {"type": "node", "id": 2903627419, "lat": 33.5691589, "lon": -7.6263509, "tags": {"name": "Anoual Capital Centre", "name:fr": "Anoual Capital Centre", "shop": "mall"}}, {"type": "node", "id": 2916714198, "lat": 33.5917373, "lon": -7.6270098, "tags": {"name": "Centre commercial Sorour", "shop": "mall"}}, {"type": "node", "id": 6433075914, "lat": 33.4177742, "lon": -7.8533468, "tags": {"name": "Centre Commercial Had Soualem", "shop": "mall"}}, {"type": "node", "id": 6433096080, "lat": 33.4193695, "lon": -7.8514771, "tags": {"name": "BIM Had Soualem", "shop": "mall"}}, {"type": "node", "id": 8758981928, "lat": 33.5619197, "lon": -7.5917098, "tags": {"addr:city": "Casablanca \u2d5c\u2d30\u2d37\u2d37\u2d30\u2d54\u2d5c \u2d5c\u2d53\u2d4e\u2d4d\u2d49\u2d4d\u2d5c \u0627\u0644\u062f\u0627\u0631 \u0627\u0644\u0628\u064a\u0636\u0627\u0621", "addr:postcode": "20530", "addr:street": "Boulevard Touria Chaoui", "name": "Bogos .ma", "opening_hours": "Mo-Su 10:00-21:00", "phone": "+212 6 56 54 52 25", "shop": "mall"}}, {"type": "node", "id": 8758981929, "lat": 33.5621119, "lon": -7.5914094, "tags": {"addr:city": "Casablanca \u2d5c\u2d30\u2d37\u2d37\u2d30\u2d54\u2d5c \u2d5c\u2d53\u2d4e\u2d4d\u2d49\u2d4d\u2d5c \u0627\u0644\u062f\u0627\u0631 \u0627\u0644\u0628\u064a\u0636\u0627\u0621", "addr:housenumber": "14", "addr:postcode": "20530", "addr:street": "Boulevard Touria Chaoui", "name": "atat Janat", "opening_hours": "Mo-Su 09:00-20:00", "phone": "+212 6 69 02 39 57", "shop": "mall"}}, {"type": "node", "id": 12381200814, "lat": 33.598333, "lon": -7.6642509, "tags": {"addr:postcode": "20000", "addr:street": "Boulevard de la Corniche \u0634\u0627\u0631\u0639 \u0627\u0644\u0643\u0648\u0631\u0646\u064a\u0634", "alt_name": "Anfa Place", "check_date": "2024-11-28", "name": "Anfaplace Mall", "phone": "+212 66 819 4101", "shop": "mall", "website": "https://anfaplacemall.com/"}}, {"type": "node", "id": 12921746833, "lat": 33.5744135, "lon": -7.6503349, "tags": {"addr:street": "Boulevard Ghandi \u0634\u0627\u0631\u0639 \u063a\u0627\u0646\u062f\u064a", "check_date": "2025-06-17", "name": "Ghandi Mall", "shop": "mall"}}, {"type": "node", "id": 13235327145, "lat": 33.5447038, "lon": -7.6405081, "tags": {"name": "Californie Mall", "shop": "mall"}}, {"type": "node", "id": 13309605688, "lat": 33.5085838, "lon": -7.6699574, "tags": {"name": "Sela Park", "shop": "mall"}}, {"type": "way", "id": 174580197, "center": {"lat": 33.5758019, "lon": -7.7068588}, "nodes": [1852470617, 1852470611, 1852470619, 1852470623, 2882636021, 1852470614, 1852470615, 1852470624, 5641595955, 8298099806, 1852470613, 1852470612, 8298099812, 8298099813, 8298099814, 8298099811, 8298099810, 5641595948, 5641595949, 1852470616, 1852470618, 1852470620, 1852470622, 1852470610, 1852470621, 1852470617], "tags": {"addr:street": "Boulevard de Biarritz \u0634\u0627\u0631\u0639 \u0628\u064a\u0627\u0631\u064a\u062a\u0632", "addr:street:fr": "Boulevard de Biarritz", "building": "mall", "building:levels": "3", "check_date": "2025-04-05", "name": "Morocco Mall", "name:fr": "Morocco Mall", "operator": "AKSAL", "operator:fr": "AKSAL", "shop": "mall", "wikidata": "Q1335801", "wikimedia_commons": "Category:Morocco Mall", "wikipedia": "fr:Morocco Mall"}}, {"type": "way", "id": 403450834, "center": {"lat": 33.5459358, "lon": -7.5495858}, "nodes": [4057991302, 4057991303, 4057991304, 4057991305, 4057991306, 4057991307, 4057991308, 4765158631, 4765159262, 4765159286, 4057991302], "tags": {"building": "yes", "name": "Marjane Sidi Othmane", "shop": "mall"}}, {"type": "way", "id": 417968781, "center": {"lat": 33.5958961, "lon": -7.6142839}, "nodes": [4184360830, 4184360965, 4184360503, 4184360489, 4184361154, 4184360822, 4184360582, 4184360576, 4184360984, 4184360781, 4184360767, 4184361030, 4184361074, 4184360830], "tags": {"addr:street": "Rue Allal Ben Abdellah", "building": "yes", "name": "Centre Allal Ben Abdellah", "shop": "mall"}}, {"type": "way", "id": 601411297, "center": {"lat": 33.5249546, "lon": -7.6522398}, "nodes": [5716184153, 5716184004, 5716184099, 5716183990, 5716184155, 5716183936, 5716183939, 5716183943, 5716184153], "tags": {"building": "commercial", "name": "O'village", "shop": "mall"}}, {"type": "way", "id": 660773704, "center": {"lat": 33.6069866, "lon": -7.6206415}, "nodes": [6186484675, 6186484676, 6186484677, 6186484678, 6186484679, 10915540851, 9540573939, 10915540849, 10915540850, 10915540852, 10915540853, 6186484680, 6186484675], "tags": {"addr:city": "Casablanca \u2d5c\u2d30\u2d37\u2d37\u2d30\u2d54\u2d5c \u2d5c\u2d53\u2d4e\u2d4d\u2d49\u2d4d\u2d5c \u0627\u0644\u062f\u0627\u0631 \u0627\u0644\u0628\u064a\u0636\u0627\u0621", "building": "retail", "check_date": "2024-10-23", "name": "Marina Shopping Center", "shop": "mall", "website": "https://www.marinashopping.ma/"}}, {"type": "way", "id": 670934625, "center": {"lat": 33.5859933, "lon": -7.5928725}, "nodes": [6282916611, 6282916612, 6282916613, 6282916614, 6282916616, 6282916617, 6282916618, 6282916611], "tags": {"addr:city": "Casablanca \u2d5c\u2d30\u2d37\u2d37\u2d30\u2d54\u2d5c \u2d5c\u2d53\u2d4e\u2d4d\u2d49\u2d4d\u2d5c \u0627\u0644\u062f\u0627\u0631 \u0627\u0644\u0628\u064a\u0636\u0627\u0621", "addr:postcode": "20250", "addr:street": "Boulevard Ibn Tachfine", "air_conditioning": "yes", "branch": "Marjane Holding", "building": "yes", "building:levels": "2", "contact:facebook": "https://www.facebook.com/TachfineCenterOfficiel/", "currency:MAD": "yes", "email": "contact@tachfinecenter.ma", "name": "Tachfine Center", "opening_hours": "Su-Th 09:00-22:00; Fr,Sa 09:00-23:00", "payment:apple_pay": "yes", "payment:cash": "yes", "payment:coins": "yes", "payment:contactless": "yes", "payment:debit_cards": "yes", "payment:google_pay": "yes", "payment:mastercard": "yes", "payment:mastercard_contactless": "yes", "phone": "+212 5 29 04 96 56", "shop": "mall", "start_date": "2016-11-03", "toilets": "yes", "website": "https://tachfinecenter.ma/", "wheelchair": "yes"}}, {"type": "way", "id": 702093054, "center": {"lat": 33.5164651, "lon": -7.6538033}, "nodes": [6593256876, 6593256877, 6593256878, 6593256879, 6593256876], "tags": {"addr:city": "Casablanca \u2d5c\u2d30\u2d37\u2d37\u2d30\u2d54\u2d5c \u2d5c\u2d53\u2d4e\u2d4d\u2d49\u2d4d\u2d5c \u0627\u0644\u062f\u0627\u0631 \u0627\u0644\u0628\u064a\u0636\u0627\u0621", "addr:street": "Boulevard Abou Bakr El Kadiri", "building": "yes", "name": "Centre Commercial Ahfad", "shop": "mall"}}, {"type": "way", "id": 767810412, "center": {"lat": 33.609211, "lon": -7.5067827}, "nodes": [7168852383, 7168852384, 7168861985, 7168861986, 7168852383], "tags": {"building": "yes", "shop": "mall"}}, {"type": "way", "id": 767824261, "center": {"lat": 33.6167499, "lon": -7.4922291}, "nodes": [7168971484, 7168974585, 7168974586, 7168974587, 7168974588, 7168971484], "tags": {"building": "yes", "shop": "mall"}}, {"type": "way", "id": 767871637, "center": {"lat": 33.604641, "lon": -7.5066915}, "nodes": [7169432332, 8879524546, 7169432334, 7169432335, 7169432332], "tags": {"building": "yes", "shop": "mall"}}, {"type": "way", "id": 871612919, "center": {"lat": 33.5632215, "lon": -7.6632489}, "nodes": [8118550625, 8118550626, 8118550627, 8118550628, 8118550629, 8118550630, 8118550631, 8118550632, 8118550633, 8118550634, 8118550635, 8118550636, 8118550637, 8118550638, 8118550639, 8118550640, 8118550625], "tags": {"building": "commercial", "building:levels": "4", "name": "Aeria Mall", "shop": "mall", "website": "https://aeriamall.com/"}}, {"type": "way", "id": 1278274596, "center": {"lat": 33.2644829, "lon": -7.5759672}, "nodes": [11867087983, 11867087981, 11867087988, 11867087989, 11867087984, 11867087985, 11916936481, 11990719769, 11990719768, 11916936483, 11916936484, 11940749268, 11867087983], "tags": {"building": "yes", "name": "Centre commercial Yasmina \u0627\u0644\u0645\u0631\u0643\u0632 \u0627\u0644\u062a\u062c\u0627\u0631\u064a \u0627\u0644\u064a\u0627\u0633\u0645\u064a\u0646\u0629", "name:ar": "\u0627\u0644\u0645\u0631\u0643\u0632 \u0627\u0644\u062a\u062c\u0627\u0631\u064a \u0627\u0644\u064a\u0627\u0633\u0645\u064a\u0646\u0629", "name:fr": "Centre commercial Yasmina", "shop": "mall"}}, {"type": "way", "id": 1349122890, "center": {"lat": 33.5138791, "lon": -7.8187966}, "nodes": [12479603394, 12479603395, 12479603396, 12479603397, 12479603398, 12479603399, 12479603400, 12479658701, 12479658702, 12479658703, 12479658704, 12479603394], "tags": {"addr:city": "Dar Bouazza \u2d37\u2d30\u2d55 \u2d31\u2d53\u2d44\u2d63\u2d63\u2d30 \u062f\u0627\u0631 \u0628\u0648\u0639\u0632\u0629", "building": "yes", "check_date": "2025-01-07", "name": "Le Mercato d'Anfa", "shop": "mall", "source": "https://www.anfarealties.com/wp-content/uploads/2019/12/Brochure-Mercato_34x34-DCC.pdf", "website": "https://www.anfarealties.com/le-mercato-danfa/"}}, {"type": "way", "id": 1459523683, "center": {"lat": 33.556995, "lon": -7.5956623}, "nodes": [13386147985, 13386147986, 13386147987, 13386147988, 13386147985], "tags": {"building": "yes", "name": "Kissariat panoramique", "name:ar": "\u0642\u064a\u0633\u0627\u0631\u064a\u0629 \u0627\u0644\u0645\u0646\u0638\u0631 \u0627\u0644\u0639\u0627\u0645", "shop": "mall"}}, {"type": "way", "id": 1497606973, "center": {"lat": 33.851673, "lon": -7.0496595}, "nodes": [13715670408, 13715670409, 13715670410, 13715670411, 13715670408], "tags": {"addr:city": "Skhirate", "addr:street": "Rabat-Sal\u00e9-K\u00e9nitra, Skhirate-T\u00e9mara, Skhirate.", "building": "yes", "name": "super march\u00e9 kazyon", "opening_hours": "08:30-23:30", "shop": "mall"}}]}